{
"type": "FeatureCollection",
"name": "cool",
"crs": { "type": "name", "properties": { "name": "urn:ogc:def:crs:OGC:1.3:CRS84" } },
"features": [
{ "type": "Feature", "properties": { "fid": 1835, "시설명": "가마1리경로당", "시설유형": "특정계층이용시설-회원이용시설", "주소": "충청북도 청주시 서원구 남이면가마길 24", "시간": "13:00 ~ 17:00 (월~금)", "구분": "특정인 이용가능" }, "geometry": { "type": "Point", "coordinates": [ 127.458271469365343, 36.600084972628395 ] } },
{ "type": "Feature", "properties": { "fid": 1840, "시설명": "양촌2리경로당", "시설유형": "특정계층이용시설-회원이용시설", "주소": "충청북도 청주시 서원구 남이면 양촌2길 46-6", "시간": "13:00 ~ 17:00 (월~금)", "구분": "특정인 이용가능" }, "geometry": { "type": "Point", "coordinates": [ 127.464931009105968, 36.592406225524954 ] } },
{ "type": "Feature", "properties": { "fid": 1836, "시설명": "양촌1리경로당", "시설유형": "특정계층이용시설-회원이용시설", "주소": "충청북도 청주시 서원구 남이면양촌1길 15", "시간": "13:00 ~ 17:00 (월~금)", "구분": "특정인 이용가능" }, "geometry": { "type": "Point", "coordinates": [ 127.46716384176635, 36.585950143237973 ] } },
{ "type": "Feature", "properties": { "fid": 1834, "시설명": "가마2리경로당", "시설유형": "특정계층이용시설-회원이용시설", "주소": "충청북도 청주시 서원구 남이면가마3길 39-7", "시간": "13:00 ~ 17:00 (월~금)", "구분": "특정인 이용가능" }, "geometry": { "type": "Point", "coordinates": [ 127.470069348143113, 36.597060604493329 ] } },
{ "type": "Feature", "properties": { "fid": 1714, "시설명": "가중2리경로당", "시설유형": "특정계층이용시설-회원이용시설", "주소": "충청북도 청주시 상당구 남일면가중2길 3", "시간": "기본 : 13:00 ~ 17:00 (월,화,수,목,금)", "구분": "특정인 이용가능" }, "geometry": { "type": "Point", "coordinates": [ 127.470350198917814, 36.573486436512795 ] } },
{ "type": "Feature", "properties": { "fid": 1838, "시설명": "양촌3리경로당", "시설유형": "특정계층이용시설-회원이용시설", "주소": "충청북도 청주시 서원구 남이면양촌3길 66", "시간": "13:00 ~ 17:00 (월~금)", "구분": "특정인 이용가능" }, "geometry": { "type": "Point", "coordinates": [ 127.471452376958453, 36.587586814614035 ] } },
{ "type": "Feature", "properties": { "fid": 1943, "시설명": "미평경로당", "시설유형": "특정계층이용시설-회원이용시설", "주소": "충청북도 청주시 서원구 청남로 1852-5", "시간": "13:00 ~ 17:00 (월~금)", "구분": "특정인 이용가능" }, "geometry": { "type": "Point", "coordinates": [ 127.475380049953188, 36.599856473710354 ] } },
{ "type": "Feature", "properties": { "fid": 1987, "시설명": "미평경로당", "시설유형": "특정계층이용시설-회원이용시설", "주소": "충청북도 청주시 서원구 청남로 1852-5", "시간": "기본 : 13:00 ~ 17:00 (월,화,수,목,금)", "구분": "특정인 이용가능" }, "geometry": { "type": "Point", "coordinates": [ 127.475380049953188, 36.599856473710354 ] } },
{ "type": "Feature", "properties": { "fid": 1860, "시설명": "시동리경로당", "시설유형": "특정계층이용시설-회원이용시설", "주소": "충청북도 청주시 서원구 현도면현도시동1길 3", "시간": "13:00 ~ 17:00 (월~금)", "구분": "특정인 이용가능" }, "geometry": { "type": "Point", "coordinates": [ 127.448098725715582, 36.4911376353759 ] } },
{ "type": "Feature", "properties": { "fid": 1725, "시설명": "두모1리경로당", "시설유형": "특정계층이용시설-회원이용시설", "주소": "충청북도 청주시 상당구 문의면 두모길 122-12", "시간": "10:00 ~ 18:00 (월~일)", "구분": "특정인 이용가능" }, "geometry": { "type": "Point", "coordinates": [ 127.454240161425574, 36.514750084266865 ] } },
{ "type": "Feature", "properties": { "fid": 1855, "시설명": "하석1리경로당", "시설유형": "특정계층이용시설-회원이용시설", "주소": "충청북도 청주시 서원구 현도면 하석1길 17", "시간": "13:00 ~ 17:00 (월~금)", "구분": "특정인 이용가능" }, "geometry": { "type": "Point", "coordinates": [ 127.458816760865844, 36.472652347478984 ] } },
{ "type": "Feature", "properties": { "fid": 1730, "시설명": "등동1리경로당", "시설유형": "특정계층이용시설-회원이용시설", "주소": "충청북도 청주시 상당구 문의면등동길 60-2", "시간": "10:00 ~ 18:00 (월~일)", "구분": "특정인 이용가능" }, "geometry": { "type": "Point", "coordinates": [ 127.459373105940429, 36.540919690286266 ] } },
{ "type": "Feature", "properties": { "fid": 1856, "시설명": "하석2리경로당", "시설유형": "특정계층이용시설-회원이용시설", "주소": "충청북도 청주시 서원구 현도면 하석길 4", "시간": "13:00 ~ 17:00 (월~금)", "구분": "특정인 이용가능" }, "geometry": { "type": "Point", "coordinates": [ 127.459541132665748, 36.458929443133442 ] } },
{ "type": "Feature", "properties": { "fid": 1726, "시설명": "도원1리경로당", "시설유형": "특정계층이용시설-회원이용시설", "주소": "충청북도 청주시 상당구 문의면 문의도원1길 47-29", "시간": "10:00 ~ 18:00 (월~일)", "구분": "특정인 이용가능" }, "geometry": { "type": "Point", "coordinates": [ 127.46007131996916, 36.528969283838194 ] } },
{ "type": "Feature", "properties": { "fid": 1729, "시설명": "등동2리경로당", "시설유형": "특정계층이용시설-회원이용시설", "주소": "충청북도 청주시 상당구 문의면 등동길 21-11", "시간": "10:00 ~ 18:00 (월~일)", "구분": "특정인 이용가능" }, "geometry": { "type": "Point", "coordinates": [ 127.4628873700794, 36.53890055425471 ] } },
{ "type": "Feature", "properties": { "fid": 1870, "시설명": "노산2리경로당", "시설유형": "특정계층이용시설-회원이용시설", "주소": "충청북도 청주시 서원구 현도면 노산2길 45", "시간": "13:00 ~ 17:00 (월~금)", "구분": "특정인 이용가능" }, "geometry": { "type": "Point", "coordinates": [ 127.446694288282472, 36.45745700614065 ] } },
{ "type": "Feature", "properties": { "fid": 1873, "시설명": "죽암2리경로당", "시설유형": "특정계층이용시설-회원이용시설", "주소": "충청북도 청주시 서원구 현도면죽암2길 68-1", "시간": "13:00 ~ 17:00 (월~금)", "구분": "특정인 이용가능" }, "geometry": { "type": "Point", "coordinates": [ 127.449892655713214, 36.530620010401542 ] } },
{ "type": "Feature", "properties": { "fid": 1921, "시설명": "산남푸르지오경로당", "시설유형": "특정계층이용시설-회원이용시설", "주소": "충청북도 청주시 서원구 두꺼비로 53", "시간": "13:00 ~ 17:00 (월~일)", "구분": "특정인 이용가능" }, "geometry": { "type": "Point", "coordinates": [ 127.464485654030952, 36.608717292234687 ] } },
{ "type": "Feature", "properties": { "fid": 1966, "시설명": "원농촌경로당", "시설유형": "특정계층이용시설-회원이용시설", "주소": "충청북도 청주시 서원구 성화로40번길 25-11", "시간": "13:00 ~ 17:00 (월~일)", "구분": "특정인 이용가능" }, "geometry": { "type": "Point", "coordinates": [ 127.448369071626018, 36.609844255817038 ] } },
{ "type": "Feature", "properties": { "fid": 2010, "시설명": "원농촌경로당", "시설유형": "특정계층이용시설-회원이용시설", "주소": "충청북도 청주시 서원구 성화로40번길 25-11, 원농촌경로당 (성화동)", "시간": "기본 : 13:00 ~ 17:00 (월,화,수,목,금,토,일)", "구분": "특정인 이용가능" }, "geometry": { "type": "Point", "coordinates": [ 127.448369071626018, 36.609844255817038 ] } },
{ "type": "Feature", "properties": { "fid": 1915, "시설명": "대원칸타빌1차경로당", "시설유형": "특정계층이용시설-회원이용시설", "주소": "충청북도 청주시 서원구 두꺼비로 63", "시간": "13:00 ~ 17:00 (월~일)", "구분": "특정인 이용가능" }, "geometry": { "type": "Point", "coordinates": [ 127.462630633133173, 36.610253090548447 ] } },
{ "type": "Feature", "properties": { "fid": 1905, "시설명": "청주남부신협", "시설유형": "생활밀착민간시설-금융기관", "주소": "충청북도 청주시 서원구 산남로 81", "시간": "09:00 ~ 16:00 (월~금)", "구분": "누구나 이용가능" }, "geometry": { "type": "Point", "coordinates": [ 127.465192841052627, 36.610813281589394 ] } },
{ "type": "Feature", "properties": { "fid": 1906, "시설명": "청주농협산남지점", "시설유형": "생활밀착민간시설-금융기관", "주소": "충청북도 청주시 서원구 산남로 71", "시간": "09:00 ~ 16:00 (월~금)", "구분": "누구나 이용가능" }, "geometry": { "type": "Point", "coordinates": [ 127.466018431677668, 36.610855457350041 ] } },
{ "type": "Feature", "properties": { "fid": 1967, "시설명": "다안채아파트경로당", "시설유형": "특정계층이용시설-회원이용시설", "주소": "충청북도 청주시 서원구 구룡산로52번길 51", "시간": "13:00 ~ 17:00 (월~일)", "구분": "특정인 이용가능" }, "geometry": { "type": "Point", "coordinates": [ 127.451417566047027, 36.611583288324759 ] } },
{ "type": "Feature", "properties": { "fid": 2011, "시설명": "다안채아파트경로당", "시설유형": "특정계층이용시설-회원이용시설", "주소": "충청북도 청주시 서원구 구룡산로52번길 51 (성화동, 다안채6단지아파트)", "시간": "기본 : 13:00 ~ 17:00 (월,화,수,목,금,토,일)", "구분": "특정인 이용가능" }, "geometry": { "type": "Point", "coordinates": [ 127.451417566047027, 36.611583288324759 ] } },
{ "type": "Feature", "properties": { "fid": 1913, "시설명": "산남퀸덤아파트경로당", "시설유형": "특정계층이용시설-회원이용시설", "주소": "충청북도 청주시 서원구 두꺼비로 93", "시간": "13:00 ~ 17:00 (월~일)", "구분": "특정인 이용가능" }, "geometry": { "type": "Point", "coordinates": [ 127.462809680592414, 36.612687202705132 ] } },
{ "type": "Feature", "properties": { "fid": 2024, "시설명": "성화주공1차@경로당", "시설유형": "특정계층이용시설-회원이용시설", "주소": "충청북도 청주시 서원구 성봉로 88", "시간": "기본 : 13:00 ~ 17:00 (월,화,수,목,금,토,일)", "구분": "특정인 이용가능" }, "geometry": { "type": "Point", "coordinates": [ 127.454389635734344, 36.613571028289314 ] } },
{ "type": "Feature", "properties": { "fid": 1912, "시설명": "유승한내들경로당", "시설유형": "특정계층이용시설-회원이용시설", "주소": "충청북도 청주시 서원구 두꺼비로 109", "시간": "13:00 ~ 17:00 (월~일)", "구분": "특정인 이용가능" }, "geometry": { "type": "Point", "coordinates": [ 127.463248605069623, 36.614080698183635 ] } },
{ "type": "Feature", "properties": { "fid": 1969, "시설명": "용호경로당", "시설유형": "특정계층이용시설-회원이용시설", "주소": "충청북도 청주시 서원구 용호로15번길 126", "시간": "13:00 ~ 17:00 (월~일)", "구분": "특정인 이용가능" }, "geometry": { "type": "Point", "coordinates": [ 127.446342966943149, 36.614317522847649 ] } },
{ "type": "Feature", "properties": { "fid": 2013, "시설명": "용호경로당", "시설유형": "특정계층이용시설-회원이용시설", "주소": "충청북도 청주시 서원구 용호로15번길 126", "시간": "기본 : 13:00 ~ 17:00 (월,화,수,목,금,토,일)", "구분": "특정인 이용가능" }, "geometry": { "type": "Point", "coordinates": [ 127.446342966943149, 36.614317522847649 ] } },
{ "type": "Feature", "properties": { "fid": 1970, "시설명": "성화3단지아파트경로당", "시설유형": "특정계층이용시설-회원이용시설", "주소": "충청북도 청주시 서원구 신성화로 12", "시간": "13:00 ~ 17:00 (월~일)", "구분": "특정인 이용가능" }, "geometry": { "type": "Point", "coordinates": [ 127.460185089716276, 36.616186465328738 ] } },
{ "type": "Feature", "properties": { "fid": 2014, "시설명": "성화3단지아파트경로당", "시설유형": "특정계층이용시설-회원이용시설", "주소": "충청북도 청주시 서원구 신성화로 12", "시간": "기본 : 13:00 ~ 17:00 (월,화,수,목,금,토,일)", "구분": "특정인 이용가능" }, "geometry": { "type": "Point", "coordinates": [ 127.460185089716276, 36.616186465328738 ] } },
{ "type": "Feature", "properties": { "fid": 1972, "시설명": "성화개신죽림동행정복지센터", "시설유형": "공공시설-공공청사", "주소": "충청북도 청주시 서원구 성봉로 128", "시간": "09:00~18:00(평일) / 10:00~18:00(주말)", "구분": "누구나 이용가능" }, "geometry": { "type": "Point", "coordinates": [ 127.453106605068953, 36.616993757693493 ] } },
{ "type": "Feature", "properties": { "fid": 2016, "시설명": "성화개신죽림동행정복지센터", "시설유형": "공공시설-공공청사", "주소": "충청북도 청주시 서원구 성봉로 128 , 성화개신죽림동주민센터 (성화동)", "시간": "기본 : 09:00 ~ 18:00 (평일) / 추가 : 10:00 ~ 18:00 (주말)", "구분": "누구나 이용가능" }, "geometry": { "type": "Point", "coordinates": [ 127.453106605068953, 36.616993757693493 ] } },
{ "type": "Feature", "properties": { "fid": 1968, "시설명": "성화주공4단지아파트경로당", "시설유형": "특정계층이용시설-회원이용시설", "주소": "충청북도 청주시 서원구 장전로 11", "시간": "13:00 ~ 17:00 (월~일)", "구분": "특정인 이용가능" }, "geometry": { "type": "Point", "coordinates": [ 127.450713867816944, 36.617776335089317 ] } },
{ "type": "Feature", "properties": { "fid": 2012, "시설명": "성화주공4단지아파트경로당", "시설유형": "특정계층이용시설-회원이용시설", "주소": "충청북도 청주시 서원구 장전로 11 (성화동, 성화휴먼시아4단지)", "시간": "기본 : 13:00 ~ 17:00 (월,화,수,목,금,토,일)", "구분": "특정인 이용가능" }, "geometry": { "type": "Point", "coordinates": [ 127.450713867816944, 36.617776335089317 ] } },
{ "type": "Feature", "properties": { "fid": 2023, "시설명": "남양휴튼A경로당", "시설유형": "특정계층이용시설-회원이용시설", "주소": "충청북도 청주시 서원구 장전로 51 (남양휴튼아파트 105동)", "시간": "기본 : 13:00 ~ 17:00 (월,화,수,목,금,토,일)", "구분": "특정인 이용가능" }, "geometry": { "type": "Point", "coordinates": [ 127.45361518495811, 36.618113340214279 ] } },
{ "type": "Feature", "properties": { "fid": 2009, "시설명": "충북낙농농협성화지점", "시설유형": "생활밀착민간시설-금융기관", "주소": "충청북도 청주시 서원구 신화로 49 (성화동)", "시간": "기본 : 09:00 ~ 16:00 (월,화,수,목,금)", "구분": "누구나 이용가능" }, "geometry": { "type": "Point", "coordinates": [ 127.454878335062546, 36.619040781229685 ] } },
{ "type": "Feature", "properties": { "fid": 1965, "시설명": "충북낙농농협성화지점", "시설유형": "생활밀착민간시설-금융기관", "주소": "충청북도 청주시 서원구 신화로 49", "시간": "09:00 ~ 16:00 (월~금)", "구분": "누구나 이용가능" }, "geometry": { "type": "Point", "coordinates": [ 127.454878335062546, 36.619040781229685 ] } },
{ "type": "Feature", "properties": { "fid": 1974, "시설명": "푸르지오@경로당", "시설유형": "특정계층이용시설-회원이용시설", "주소": "충청북도 청주시 서원구 신율로 15", "시간": "13:00 ~ 17:00 (월~일)", "구분": "특정인 이용가능" }, "geometry": { "type": "Point", "coordinates": [ 127.44705261991075, 36.619395274543294 ] } },
{ "type": "Feature", "properties": { "fid": 2018, "시설명": "푸르지오@경로당", "시설유형": "특정계층이용시설-회원이용시설", "주소": "충청북도 청주시 서원구 신율로 15 (청주개신푸르지오상가)", "시간": "기본 : 13:00 ~ 17:00 (월,화,수,목,금,토,일)", "구분": "특정인 이용가능" }, "geometry": { "type": "Point", "coordinates": [ 127.44705261991075, 36.619395274543294 ] } },
{ "type": "Feature", "properties": { "fid": 1963, "시설명": "서원새마을금고개신지점", "시설유형": "생활밀착민간시설-금융기관", "주소": "충청북도 청주시 서원구 경신로 47", "시간": "09:00 ~ 16:00 (월~금)", "구분": "누구나 이용가능" }, "geometry": { "type": "Point", "coordinates": [ 127.447171786463414, 36.621302380699767 ] } },
{ "type": "Feature", "properties": { "fid": 2007, "시설명": "서원새마을금고개신지점", "시설유형": "생활밀착민간시설-금융기관", "주소": "충청북도 청주시 서원구 경신로 47 (개신동, 빌라)", "시간": "기본 : 09:00 ~ 16:00 (월,화,수,목,금)", "구분": "누구나 이용가능" }, "geometry": { "type": "Point", "coordinates": [ 127.447171786463414, 36.621302380699767 ] } },
{ "type": "Feature", "properties": { "fid": 1975, "시설명": "개신주공1단지@경로당", "시설유형": "특정계층이용시설-회원이용시설", "주소": "충청북도 청주시 서원구 경신로 65", "시간": "13:00 ~ 17:00 (월~일)", "구분": "특정인 이용가능" }, "geometry": { "type": "Point", "coordinates": [ 127.448609414113946, 36.622521273872039 ] } },
{ "type": "Feature", "properties": { "fid": 2019, "시설명": "개신주공1단지@경로당", "시설유형": "특정계층이용시설-회원이용시설", "주소": "충청북도 청주시 서원구 경신로 65 (주공1단지아파트)", "시간": "기본 : 13:00 ~ 17:00 (월,화,수,목,금,토,일)", "구분": "특정인 이용가능" }, "geometry": { "type": "Point", "coordinates": [ 127.448609414113946, 36.622521273872039 ] } },
{ "type": "Feature", "properties": { "fid": 2020, "시설명": "배티경로당(성개죽)", "시설유형": "특정계층이용시설-회원이용시설", "주소": "충청북도 청주시 서원구 성봉로192번길 55 (개신동)", "시간": "기본 : 13:00 ~ 17:00 (월,화,수,목,금,토,일)", "구분": "특정인 이용가능" }, "geometry": { "type": "Point", "coordinates": [ 127.450127085895332, 36.624260208449179 ] } },
{ "type": "Feature", "properties": { "fid": 2098, "시설명": "가곡1리경로당", "시설유형": "특정계층이용시설-회원이용시설", "주소": "충청북도 청주시 청원구 오창읍 가곡2길 6", "시간": "13:00 ~ 17:00 (월-일)", "구분": "특정인 이용가능" }, "geometry": { "type": "Point", "coordinates": [ 127.458825267848013, 36.722263545283546 ] } },
{ "type": "Feature", "properties": { "fid": 2095, "시설명": "괴정2리경로당", "시설유형": "특정계층이용시설-회원이용시설", "주소": "충청북도 청주시 청원구 오창읍 괴정1길 74", "시간": "13:00 ~ 17:00 (월-일)", "구분": "특정인 이용가능" }, "geometry": { "type": "Point", "coordinates": [ 127.460749866945719, 36.729337713376594 ] } },
{ "type": "Feature", "properties": { "fid": 2097, "시설명": "가곡2리경로당", "시설유형": "특정계층이용시설-회원이용시설", "주소": "충청북도 청주시 청원구 오창읍 가곡1길 17-10", "시간": "13:00 ~ 17:00 (월-일)", "구분": "특정인 이용가능" }, "geometry": { "type": "Point", "coordinates": [ 127.461470490461863, 36.723688894252646 ] } },
{ "type": "Feature", "properties": { "fid": 2096, "시설명": "괴정1리경로당", "시설유형": "특정계층이용시설-회원이용시설", "주소": "충청북도 청주시 청원구 오창읍 괴정길 42", "시간": "13:00 ~ 17:00 (월-일)", "구분": "특정인 이용가능" }, "geometry": { "type": "Point", "coordinates": [ 127.463113483374627, 36.729109845186095 ] } },
{ "type": "Feature", "properties": { "fid": 2048, "시설명": "입상1리경로당", "시설유형": "특정계층이용시설-회원이용시설", "주소": "충청북도 청주시 청원구 내수읍 입상1길 32", "시간": "13:00 ~ 17:00 (월-일)", "구분": "특정인 이용가능" }, "geometry": { "type": "Point", "coordinates": [ 127.488404182737881, 36.72165933593741 ] } },
{ "type": "Feature", "properties": { "fid": 1973, "시설명": "송학삼익@경로당", "시설유형": "특정계층이용시설-회원이용시설", "주소": "충청북도 청주시 서원구 모충로12번길 4", "시간": "13:00 ~ 17:00 (월~일)", "구분": "특정인 이용가능" }, "geometry": { "type": "Point", "coordinates": [ 127.465291318398755, 36.624072805947065 ] } },
{ "type": "Feature", "properties": { "fid": 2017, "시설명": "송학삼익@경로당", "시설유형": "특정계층이용시설-회원이용시설", "주소": "충청북도 청주시 서원구 모충로12번길 4 (송학아파트 101동)", "시간": "기본 : 13:00 ~ 17:00 (월,화,수,목,금,토,일)", "구분": "특정인 이용가능" }, "geometry": { "type": "Point", "coordinates": [ 127.465291318398755, 36.624072805947065 ] } },
{ "type": "Feature", "properties": { "fid": 1900, "시설명": "두산한솔경로당", "시설유형": "특정계층이용시설-회원이용시설", "주소": "충청북도 청주시 서원구 모충로124번길 53", "시간": "13:00 ~ 17:00 (월~금)", "구분": "특정인 이용가능" }, "geometry": { "type": "Point", "coordinates": [ 127.47716981645091, 36.625880672971817 ] } },
{ "type": "Feature", "properties": { "fid": 1904, "시설명": "금솔경로당", "시설유형": "특정계층이용시설-회원이용시설", "주소": "충청북도 청주시 서원구 매봉로189번길 10", "시간": "13:00 ~ 17:00 (월~금)", "구분": "특정인 이용가능" }, "geometry": { "type": "Point", "coordinates": [ 127.475066386295225, 36.626018558604372 ] } },
{ "type": "Feature", "properties": { "fid": 1902, "시설명": "모충동행정복지센터", "시설유형": "공공시설-공공청사", "주소": "충청북도 청주시 서원구 모충로124번길 25", "시간": "09:00~18:00(평일) / 10:00~18:00(주말)", "구분": "누구나 이용가능" }, "geometry": { "type": "Point", "coordinates": [ 127.476928602760637, 36.627696498951956 ] } },
{ "type": "Feature", "properties": { "fid": 2021, "시설명": "삼익2차아파트경로당", "시설유형": "특정계층이용시설-회원이용시설", "주소": "충청북도 청주시 서원구 창직로12번길 65 (개신동, 삼익2차아파트)", "시간": "기본 : 13:00 ~ 17:00 (월,화,수,목,금,토,일)", "구분": "특정인 이용가능" }, "geometry": { "type": "Point", "coordinates": [ 127.464759826603114, 36.628287737546557 ] } },
{ "type": "Feature", "properties": { "fid": 1901, "시설명": "배티경로당(모충)", "시설유형": "특정계층이용시설-회원이용시설", "주소": "충청북도 청주시 서원구 모충로104번길 53-7", "시간": "13:00 ~ 17:00 (월~일)", "구분": "특정인 이용가능" }, "geometry": { "type": "Point", "coordinates": [ 127.476990281465717, 36.628301186230651 ] } },
{ "type": "Feature", "properties": { "fid": 1882, "시설명": "사직2동행정복지센터", "시설유형": "공공시설-공공청사", "주소": "충청북도 청주시 서원구 충렬로53번길 31", "시간": "09:00~18:00(평일) / 10:00~18:00(주말)", "구분": "누구나 이용가능" }, "geometry": { "type": "Point", "coordinates": [ 127.47378397297166, 36.631549773784172 ] } },
{ "type": "Feature", "properties": { "fid": 1898, "시설명": "창신경로당", "시설유형": "특정계층이용시설-회원이용시설", "주소": "충청북도 청주시 서원구 창직로29번길 25", "시간": "10:00 ~ 18:00 (월~일)", "구분": "특정인 이용가능" }, "geometry": { "type": "Point", "coordinates": [ 127.464937362935601, 36.632075261066952 ] } },
{ "type": "Feature", "properties": { "fid": 1899, "시설명": "대원칸타빌경로당", "시설유형": "특정계층이용시설-회원이용시설", "주소": "충청북도 청주시 서원구 예체로67번길 87", "시간": "10:00 ~ 18:00 (월~일)", "구분": "특정인 이용가능" }, "geometry": { "type": "Point", "coordinates": [ 127.462713027820612, 36.63234722619238 ] } },
{ "type": "Feature", "properties": { "fid": 1897, "시설명": "창수경로당", "시설유형": "특정계층이용시설-회원이용시설", "주소": "충청북도 청주시 서원구 1순환로704번길 60", "시간": "10:00 ~ 18:00 (월~일)", "구분": "특정인 이용가능" }, "geometry": { "type": "Point", "coordinates": [ 127.459176867644061, 36.632441329596517 ] } },
{ "type": "Feature", "properties": { "fid": 1890, "시설명": "사창경로당", "시설유형": "특정계층이용시설-회원이용시설", "주소": "충청북도 청주시 서원구 창신로26번길 45-1", "시간": "10:00 ~ 18:00 (월~일)", "구분": "특정인 이용가능" }, "geometry": { "type": "Point", "coordinates": [ 127.467025893525289, 36.633259842112274 ] } },
{ "type": "Feature", "properties": { "fid": 1891, "시설명": "사창동행정복지센터", "시설유형": "공공시설-공공청사", "주소": "충청북도 청주시 서원구 내수동로 108", "시간": "09:00~18:00(평일) / 10:00~18:00(주말)", "구분": "누구나 이용가능" }, "geometry": { "type": "Point", "coordinates": [ 127.458981095635977, 36.633538700137521 ] } },
{ "type": "Feature", "properties": { "fid": 1895, "시설명": "웃말경로당", "시설유형": "특정계층이용시설-회원이용시설", "주소": "충청북도 청주시 서원구 사직대로176번길 26-2", "시간": "10:00 ~ 18:00 (월~일)", "구분": "특정인 이용가능" }, "geometry": { "type": "Point", "coordinates": [ 127.466500891849932, 36.634155361909052 ] } },
{ "type": "Feature", "properties": { "fid": 1883, "시설명": "국일신협", "시설유형": "생활밀착민간시설-금융기관", "주소": "충청북도 청주시 서원구 사직대로 267", "시간": "09:00 ~ 16:00 (월~금)", "구분": "누구나 이용가능" }, "geometry": { "type": "Point", "coordinates": [ 127.477073999263098, 36.635990609145125 ] } },
{ "type": "Feature", "properties": { "fid": 1896, "시설명": "장수경로당", "시설유형": "특정계층이용시설-회원이용시설", "주소": "충청북도 청주시 서원구 사직대로89번길 26-9", "시간": "10:00 ~ 18:00 (월~일)", "구분": "특정인 이용가능" }, "geometry": { "type": "Point", "coordinates": [ 127.457944823966201, 36.636098798177542 ] } },
{ "type": "Feature", "properties": { "fid": 1894, "시설명": "현대아파트경로당", "시설유형": "특정계층이용시설-회원이용시설", "주소": "충청북도 청주시 서원구 사직대로157번길 18", "시간": "10:00 ~ 18:00 (월~일)", "구분": "특정인 이용가능" }, "geometry": { "type": "Point", "coordinates": [ 127.464785709676931, 36.636223206985854 ] } },
{ "type": "Feature", "properties": { "fid": 1884, "시설명": "사랑경로당", "시설유형": "특정계층이용시설-회원이용시설", "주소": "충청북도 청주시 서원구 사직대로201번길 27-2", "시간": "13:00 ~ 17:00 (월~일)", "구분": "특정인 이용가능" }, "geometry": { "type": "Point", "coordinates": [ 127.471088868261091, 36.636318242169374 ] } },
{ "type": "Feature", "properties": { "fid": 1887, "시설명": "두산위브경로당", "시설유형": "특정계층이용시설-회원이용시설", "주소": "충청북도 청주시 서원구 사운로 93", "시간": "13:00 ~ 17:00 (월~일)", "구분": "특정인 이용가능" }, "geometry": { "type": "Point", "coordinates": [ 127.477939757297193, 36.636971647373059 ] } },
{ "type": "Feature", "properties": { "fid": 1885, "시설명": "미호경로당", "시설유형": "특정계층이용시설-회원이용시설", "주소": "충청북도 청주시 서원구 사운로99번길 23", "시간": "13:00 ~ 17:00 (월~일)", "구분": "특정인 이용가능" }, "geometry": { "type": "Point", "coordinates": [ 127.477721619023271, 36.637579080421276 ] } },
{ "type": "Feature", "properties": { "fid": 1893, "시설명": "중앙경로당", "시설유형": "특정계층이용시설-회원이용시설", "주소": "충청북도 청주시 서원구 봉명로240번길 43", "시간": "10:00 ~ 18:00 (월~일)", "구분": "특정인 이용가능" }, "geometry": { "type": "Point", "coordinates": [ 127.468270105552619, 36.637870769886781 ] } },
{ "type": "Feature", "properties": { "fid": 1892, "시설명": "천수경로당", "시설유형": "특정계층이용시설-회원이용시설", "주소": "충청북도 청주시 서원구 천수로 25", "시간": "10:00 ~ 18:00 (월~일)", "구분": "특정인 이용가능" }, "geometry": { "type": "Point", "coordinates": [ 127.461396252059046, 36.637933322124475 ] } },
{ "type": "Feature", "properties": { "fid": 1724, "시설명": "두모2리부수골경로당", "시설유형": "특정계층이용시설-회원이용시설", "주소": "충청북도 청주시 상당구 문의면 두모2길 37", "시간": "10:00 ~ 18:00 (월~일)", "구분": "특정인 이용가능" }, "geometry": { "type": "Point", "coordinates": [ 127.467901565051747, 36.521476333489751 ] } },
{ "type": "Feature", "properties": { "fid": 1727, "시설명": "도원2리마장경로당", "시설유형": "특정계층이용시설-회원이용시설", "주소": "충청북도 청주시 상당구 문의면 문의도원길 26-1", "시간": "10:00 ~ 18:00 (월~일)", "구분": "특정인 이용가능" }, "geometry": { "type": "Point", "coordinates": [ 127.467946243727667, 36.525802009385117 ] } },
{ "type": "Feature", "properties": { "fid": 1722, "시설명": "품곡리경로당", "시설유형": "특정계층이용시설-회원이용시설", "주소": "충청북도 청주시 상당구 문의면 덕유남계로 240", "시간": "10:00 ~ 18:00 (월~일)", "구분": "특정인 이용가능" }, "geometry": { "type": "Point", "coordinates": [ 127.470684640434428, 36.503818940289413 ] } },
{ "type": "Feature", "properties": { "fid": 1728, "시설명": "도원2리은골경로당", "시설유형": "특정계층이용시설-회원이용시설", "주소": "충청북도 청주시 상당구 문의면 문의도원2길 32-1", "시간": "10:00 ~ 18:00 (월~일)", "구분": "특정인 이용가능" }, "geometry": { "type": "Point", "coordinates": [ 127.470722175342232, 36.532162176429281 ] } },
{ "type": "Feature", "properties": { "fid": 1723, "시설명": "두모2리경로당", "시설유형": "특정계층이용시설-회원이용시설", "주소": "충청북도 청주시 상당구 문의면 두모1길 62-6", "시간": "10:00 ~ 18:00 (월~일)", "구분": "특정인 이용가능" }, "geometry": { "type": "Point", "coordinates": [ 127.473622300539731, 36.516309097497235 ] } },
{ "type": "Feature", "properties": { "fid": 1751, "시설명": "남계3리화산경로당", "시설유형": "특정계층이용시설-회원이용시설", "주소": "충청북도 청주시 상당구 문의면 남계5길 29", "시간": "10:00 ~ 18:00 (월~일)", "구분": "특정인 이용가능" }, "geometry": { "type": "Point", "coordinates": [ 127.478986780472511, 36.543225795340824 ] } },
{ "type": "Feature", "properties": { "fid": 1748, "시설명": "남계3리경로당", "시설유형": "특정계층이용시설-회원이용시설", "주소": "충청북도 청주시 상당구 문의면 남계4길 37", "시간": "10:00 ~ 18:00 (월~일)", "구분": "특정인 이용가능" }, "geometry": { "type": "Point", "coordinates": [ 127.491116225663575, 36.542859209361488 ] } },
{ "type": "Feature", "properties": { "fid": 1742, "시설명": "미천6리경로당", "시설유형": "특정계층이용시설-회원이용시설", "주소": "충청북도 청주시 상당구 문의면 미천1길 41", "시간": "10:00 ~ 18:00 (월~일)", "구분": "특정인 이용가능" }, "geometry": { "type": "Point", "coordinates": [ 127.492729281967556, 36.521843446244333 ] } },
{ "type": "Feature", "properties": { "fid": 1713, "시설명": "화당2리경로당", "시설유형": "특정계층이용시설-회원이용시설", "주소": "충청북도 청주시 상당구 남일면 화당1길 33", "시간": "기본 : 13:00 ~ 17:00 (월,화,수,목,금)", "구분": "특정인 이용가능" }, "geometry": { "type": "Point", "coordinates": [ 127.493451334146883, 36.550301202899561 ] } },
{ "type": "Feature", "properties": { "fid": 1744, "시설명": "미천8리경로당", "시설유형": "특정계층이용시설-회원이용시설", "주소": "충청북도 청주시 상당구 문의면 문의시내1길 25", "시간": "10:00 ~ 18:00 (월~일)", "구분": "특정인 이용가능" }, "geometry": { "type": "Point", "coordinates": [ 127.494882446690198, 36.517321264258619 ] } },
{ "type": "Feature", "properties": { "fid": 1741, "시설명": "미천5리경로당", "시설유형": "특정계층이용시설-회원이용시설", "주소": "충청북도 청주시 상당구 문의면 문의시내1길 11-2", "시간": "10:00 ~ 18:00 (월~일)", "구분": "특정인 이용가능" }, "geometry": { "type": "Point", "coordinates": [ 127.495959938638336, 36.517015369800028 ] } },
{ "type": "Feature", "properties": { "fid": 1758, "시설명": "문의면행정복지센터", "시설유형": "공공시설-공공청사", "주소": "충청북도 청주시 상당구 문의면문의시내1길 8-15", "시간": "09:00 ~ 18:00 (평일) / 10:00 ~ 18:00 (주말)", "구분": "누구나 이용가능" }, "geometry": { "type": "Point", "coordinates": [ 127.49630490395684, 36.517789630021383 ] } },
{ "type": "Feature", "properties": { "fid": 1750, "시설명": "남계2리경로당", "시설유형": "특정계층이용시설-회원이용시설", "주소": "충청북도 청주시 상당구 문의면 남계3길 54", "시간": "10:00 ~ 18:00 (월~일)", "구분": "특정인 이용가능" }, "geometry": { "type": "Point", "coordinates": [ 127.497325311946199, 36.540171061747188 ] } },
{ "type": "Feature", "properties": { "fid": 1747, "시설명": "미천2리경로당", "시설유형": "특정계층이용시설-회원이용시설", "주소": "충청북도 청주시 상당구 문의면 문의시내2길 9-9", "시간": "10:00 ~ 18:00 (월~일)", "구분": "특정인 이용가능" }, "geometry": { "type": "Point", "coordinates": [ 127.498226166943851, 36.518199522058545 ] } },
{ "type": "Feature", "properties": { "fid": 1746, "시설명": "미천1리경로당", "시설유형": "특정계층이용시설-회원이용시설", "주소": "충청북도 청주시 상당구 문의면 미천3길 9", "시간": "10:00 ~ 18:00 (월~일)", "구분": "특정인 이용가능" }, "geometry": { "type": "Point", "coordinates": [ 127.498298053101422, 36.521587095677724 ] } },
{ "type": "Feature", "properties": { "fid": 1745, "시설명": "미천3리경로당", "시설유형": "특정계층이용시설-회원이용시설", "주소": "충청북도 청주시 상당구 문의면 문의시내로 8", "시간": "10:00 ~ 18:00 (월~일)", "구분": "특정인 이용가능" }, "geometry": { "type": "Point", "coordinates": [ 127.498329681872491, 36.514140792861653 ] } },
{ "type": "Feature", "properties": { "fid": 1743, "시설명": "미천7리경로당", "시설유형": "특정계층이용시설-회원이용시설", "주소": "충청북도 청주시 상당구 문의면 문의시내2길 6-15", "시간": "10:00 ~ 18:00 (월~일)", "구분": "특정인 이용가능" }, "geometry": { "type": "Point", "coordinates": [ 127.498593666894521, 36.515982723820301 ] } },
{ "type": "Feature", "properties": { "fid": 1710, "시설명": "화당1리경로당", "시설유형": "특정계층이용시설-회원이용시설", "주소": "충청북도 청주시 상당구 남일면 화당3길 15", "시간": "기본 : 13:00 ~ 17:00 (월,화,수,목,금)", "구분": "특정인 이용가능" }, "geometry": { "type": "Point", "coordinates": [ 127.499609314773636, 36.55181939969993 ] } },
{ "type": "Feature", "properties": { "fid": 1749, "시설명": "남계1리경로당", "시설유형": "특정계층이용시설-회원이용시설", "주소": "충청북도 청주시 상당구 문의면 남계리 365-4", "시간": "10:00 ~ 18:00 (월~일)", "구분": "특정인 이용가능" }, "geometry": { "type": "Point", "coordinates": [ 127.502329155123931, 36.537823314023669 ] } },
{ "type": "Feature", "properties": { "fid": 1666, "시설명": "국전2리경로당", "시설유형": "특정계층이용시설-회원이용시설", "주소": "충청북도 청주시 상당구 가덕면국전길 46", "시간": "기본 : 13:00 ~ 17:00 (월,화,수,목,금,토,일)", "구분": "특정인 이용가능" }, "geometry": { "type": "Point", "coordinates": [ 127.506801285331719, 36.532924267059748 ] } },
{ "type": "Feature", "properties": { "fid": 1674, "시설명": "상대1리경로당", "시설유형": "특정계층이용시설-회원이용시설", "주소": "충청북도 청주시 상당구 가덕면상대길 19", "시간": "기본 : 13:00 ~ 17:00 (월,화,수,목,금,토,일)", "구분": "특정인 이용가능" }, "geometry": { "type": "Point", "coordinates": [ 127.511389787519036, 36.551400508289852 ] } },
{ "type": "Feature", "properties": { "fid": 1673, "시설명": "국전1리경로당", "시설유형": "특정계층이용시설-회원이용시설", "주소": "충청북도 청주시 상당구 가덕면 국전길 111", "시간": "기본 : 13:00 ~ 17:00 (월,화,수,목,금,토,일)", "구분": "특정인 이용가능" }, "geometry": { "type": "Point", "coordinates": [ 127.511963417156466, 36.529687842217648 ] } },
{ "type": "Feature", "properties": { "fid": 1752, "시설명": "상장1리경로당", "시설유형": "특정계층이용시설-회원이용시설", "주소": "충청북도 청주시 상당구 문의면 상장2길 12", "시간": "10:00 ~ 18:00 (월~일)", "구분": "특정인 이용가능" }, "geometry": { "type": "Point", "coordinates": [ 127.515870947414172, 36.520826591383027 ] } },
{ "type": "Feature", "properties": { "fid": 1675, "시설명": "상대2리경로당", "시설유형": "특정계층이용시설-회원이용시설", "주소": "충청북도 청주시 상당구 가덕면 고은두산로 311", "시간": "기본 : 13:00 ~ 17:00 (월,화,수,목,금,토,일)", "구분": "특정인 이용가능" }, "geometry": { "type": "Point", "coordinates": [ 127.5167803872951, 36.54728328460677 ] } },
{ "type": "Feature", "properties": { "fid": 1648, "시설명": "삼항2리경로당", "시설유형": "특정계층이용시설-회원이용시설", "주소": "충청북도 청주시 상당구 가덕면 삼항상대로 48-3", "시간": "기본 : 13:00 ~ 17:00 (월,화,수,목,금,토,일)", "구분": "특정인 이용가능" }, "geometry": { "type": "Point", "coordinates": [ 127.51853300936358, 36.53279590192988 ] } },
{ "type": "Feature", "properties": { "fid": 1669, "시설명": "삼항1리경로당", "시설유형": "특정계층이용시설-회원이용시설", "주소": "충청북도 청주시 상당구 가덕면 상장인차로 151-2", "시간": "기본 : 13:00 ~ 17:00 (월,화,수,목,금,토,일)", "구분": "특정인 이용가능" }, "geometry": { "type": "Point", "coordinates": [ 127.521194393591429, 36.529979006257598 ] } },
{ "type": "Feature", "properties": { "fid": 1667, "시설명": "행정리경로당", "시설유형": "특정계층이용시설-회원이용시설", "주소": "충청북도 청주시 상당구 가덕면행정길 42", "시간": "기본 : 13:00 ~ 17:00 (월,화,수,목,금,토,일)", "구분": "특정인 이용가능" }, "geometry": { "type": "Point", "coordinates": [ 127.525493279614409, 36.537579768741246 ] } },
{ "type": "Feature", "properties": { "fid": 1676, "시설명": "노동1리경로당", "시설유형": "특정계층이용시설-회원이용시설", "주소": "충청북도 청주시 상당구 가덕면 노동두산길 29", "시간": "기본 : 13:00 ~ 17:00 (월,화,수,목,금,토,일)", "구분": "특정인 이용가능" }, "geometry": { "type": "Point", "coordinates": [ 127.526306159902035, 36.551355827720663 ] } },
{ "type": "Feature", "properties": { "fid": 1756, "시설명": "괴곡리경로당", "시설유형": "특정계층이용시설-회원이용시설", "주소": "충청북도 청주시 상당구 문의면 괴곡길 8", "시간": "10:00 ~ 18:00 (월~일)", "구분": "특정인 이용가능" }, "geometry": { "type": "Point", "coordinates": [ 127.526379641699009, 36.508582576258618 ] } },
{ "type": "Feature", "properties": { "fid": 1736, "시설명": "노현1리경로당", "시설유형": "특정계층이용시설-회원이용시설", "주소": "충청북도 청주시 상당구 문의면노현마구로 27", "시간": "10:00 ~ 18:00 (월~일)", "구분": "특정인 이용가능" }, "geometry": { "type": "Point", "coordinates": [ 127.527053468179162, 36.515872403497504 ] } },
{ "type": "Feature", "properties": { "fid": 1889, "시설명": "사직1동행정복지센터", "시설유형": "공공시설-공공청사", "주소": "충청북도 청주시 서원구 대원로 45", "시간": "09:00~18:00(평일) / 10:00~18:00(주말)", "구분": "누구나 이용가능" }, "geometry": { "type": "Point", "coordinates": [ 127.481200937987197, 36.640188368876693 ] } },
{ "type": "Feature", "properties": { "fid": 2376, "시설명": "유네스코국제기록유산센터(1층북카페)", "시설유형": "공공시설-복지·문화·체육시설", "주소": "충청북도 청주시 흥덕구 직지대로 719", "시간": "기본 : 09:00 ~ 18:00 (월-금)", "구분": "누구나 이용가능" }, "geometry": { "type": "Point", "coordinates": [ 127.472919455401694, 36.643011368247336 ] } },
{ "type": "Feature", "properties": { "fid": 2377, "시설명": "금속활자주조전수관", "시설유형": "공공시설-복지·문화·체육시설", "주소": "충청북도 청주시 흥덕구 흥덕로 96", "시간": "기본 : 09:00 ~ 18:00 (화-일)", "구분": "누구나 이용가능" }, "geometry": { "type": "Point", "coordinates": [ 127.472635022093598, 36.643593733077743 ] } },
{ "type": "Feature", "properties": { "fid": 2371, "시설명": "연당경로당", "시설유형": "특정계층이용시설-회원이용시설", "주소": "충청북도 청주시 흥덕구 흥덕로108번길 26", "시간": "기본 : 09:00 ~ 18:00 (월-금)", "구분": "특정인 이용가능" }, "geometry": { "type": "Point", "coordinates": [ 127.474251718767931, 36.643915671294153 ] } },
{ "type": "Feature", "properties": { "fid": 1888, "시설명": "평화아파트경로당", "시설유형": "특정계층이용시설-회원이용시설", "주소": "충청북도 청주시 서원구 직지대로772번길 14", "시간": "13:00 ~ 17:00 (월~일)", "구분": "특정인 이용가능" }, "geometry": { "type": "Point", "coordinates": [ 127.477815394822585, 36.643983527834159 ] } },
{ "type": "Feature", "properties": { "fid": 2375, "시설명": "근현대인쇄전시관", "시설유형": "공공시설-복지·문화·체육시설", "주소": "충청북도 청주시 흥덕구 흥덕로 104", "시간": "기본 : 09:00 ~ 18:00 (화-일)", "구분": "누구나 이용가능" }, "geometry": { "type": "Point", "coordinates": [ 127.473084596052203, 36.64407815415624 ] } },
{ "type": "Feature", "properties": { "fid": 2374, "시설명": "청주고인쇄박물관", "시설유형": "공공시설-복지·문화·체육시설", "주소": "충청북도 청주시 흥덕구 직지대로 713", "시간": "기본 : 09:00 ~ 18:00 (화-일)", "구분": "누구나 이용가능" }, "geometry": { "type": "Point", "coordinates": [ 127.471998785080714, 36.644185531937303 ] } },
{ "type": "Feature", "properties": { "fid": 1886, "시설명": "장미경로당", "시설유형": "특정계층이용시설-회원이용시설", "주소": "충청북도 청주시 서원구 사운로172번길 7", "시간": "13:00 ~ 17:00 (월~일)", "구분": "특정인 이용가능" }, "geometry": { "type": "Point", "coordinates": [ 127.479579328747676, 36.644530721265738 ] } },
{ "type": "Feature", "properties": { "fid": 2368, "시설명": "운천신봉동행정복지센터", "시설유형": "공공시설-공공청사", "주소": "충청북도 청주시 흥덕구 사운로 190", "시간": "기본 : 09:00 ~ 18:00 (월-일)", "구분": "누구나 이용가능" }, "geometry": { "type": "Point", "coordinates": [ 127.478371184547214, 36.645928737379172 ] } },
{ "type": "Feature", "properties": { "fid": 2373, "시설명": "흥덕경로당", "시설유형": "특정계층이용시설-회원이용시설", "주소": "충청북도 청주시 흥덕구 흥덕로172번길 17", "시간": "기본 : 09:00 ~ 18:00 (월-금)", "구분": "특정인 이용가능" }, "geometry": { "type": "Point", "coordinates": [ 127.478259391283643, 36.648048529937206 ] } },
{ "type": "Feature", "properties": { "fid": 2372, "시설명": "진양아파트경로당", "시설유형": "특정계층이용시설-회원이용시설", "주소": "충청북도 청주시 흥덕구 사운로 257", "시간": "기본 : 09:00 ~ 18:00 (월-금)", "구분": "특정인 이용가능" }, "geometry": { "type": "Point", "coordinates": [ 127.473166605120738, 36.650554748690283 ] } },
{ "type": "Feature", "properties": { "fid": 2369, "시설명": "한성아파트경로당", "시설유형": "특정계층이용시설-회원이용시설", "주소": "충청북도 청주시 흥덕구 1순환로 451", "시간": "기본 : 09:00 ~ 18:00 (월-금)", "구분": "특정인 이용가능" }, "geometry": { "type": "Point", "coordinates": [ 127.470129500697126, 36.650801568331239 ] } },
{ "type": "Feature", "properties": { "fid": 2370, "시설명": "세원아파트경로당", "시설유형": "특정계층이용시설-회원이용시설", "주소": "충청북도 청주시 흥덕구 사운로 267", "시간": "기본 : 09:00 ~ 18:00 (월-금)", "구분": "특정인 이용가능" }, "geometry": { "type": "Point", "coordinates": [ 127.472894064863752, 36.651125875369544 ] } },
{ "type": "Feature", "properties": { "fid": 2378, "시설명": "수안들경로당", "시설유형": "특정계층이용시설-회원이용시설", "주소": "충청북도 청주시 흥덕구 운천로 13-8", "시간": "기본 : 09:00 ~ 18:00 (월-금)", "구분": "특정인 이용가능" }, "geometry": { "type": "Point", "coordinates": [ 127.475450205883746, 36.65140285014477 ] } },
{ "type": "Feature", "properties": { "fid": 2226, "시설명": "문화경로당", "시설유형": "특정계층이용시설-회원이용시설", "주소": "충청북도 청주시 청원구 우암로9번길 15 , 문화경로당 (우암동)", "시간": "기본 : 13:00 ~ 17:00 (월,화,수,목,금)", "구분": "특정인 이용가능" }, "geometry": { "type": "Point", "coordinates": [ 127.480416407712283, 36.652142929237705 ] } },
{ "type": "Feature", "properties": { "fid": 2380, "시설명": "삼일아파트경로당(운천신봉)", "시설유형": "특정계층이용시설-회원이용시설", "주소": "충청북도 청주시 흥덕구 사운로280번길 9", "시간": "기본 : 09:00 ~ 18:00 (월-금)", "구분": "특정인 이용가능" }, "geometry": { "type": "Point", "coordinates": [ 127.472813232151935, 36.6532769134635 ] } },
{ "type": "Feature", "properties": { "fid": 2379, "시설명": "운천경로당", "시설유형": "특정계층이용시설-회원이용시설", "주소": "충청북도 청주시 흥덕구 무심서로 713", "시간": "기본 : 09:00 ~ 18:00 (월-금)", "구분": "특정인 이용가능" }, "geometry": { "type": "Point", "coordinates": [ 127.475112998543281, 36.6532867065037 ] } },
{ "type": "Feature", "properties": { "fid": 2381, "시설명": "형석아파트경로당", "시설유형": "특정계층이용시설-회원이용시설", "주소": "충청북도 청주시 흥덕구 사운로 281", "시간": "기본 : 09:00 ~ 18:00 (월-금)", "구분": "특정인 이용가능" }, "geometry": { "type": "Point", "coordinates": [ 127.471690229317815, 36.652448774056801 ] } },
{ "type": "Feature", "properties": { "fid": 2382, "시설명": "산정경로당", "시설유형": "특정계층이용시설-회원이용시설", "주소": "충청북도 청주시 흥덕구 흥덕로127번길 63", "시간": "기본 : 09:00 ~ 18:00 (월-금)", "구분": "특정인 이용가능" }, "geometry": { "type": "Point", "coordinates": [ 127.474026550283213, 36.647557585823201 ] } },
{ "type": "Feature", "properties": { "fid": 2383, "시설명": "삼성아파트경로당", "시설유형": "특정계층이용시설-회원이용시설", "주소": "충청북도 청주시 흥덕구 사운로321번길 20", "시간": "기본 : 09:00 ~ 18:00 (월-금)", "구분": "특정인 이용가능" }, "geometry": { "type": "Point", "coordinates": [ 127.468212098835295, 36.655771925892367 ] } },
{ "type": "Feature", "properties": { "fid": 2384, "시설명": "두진백로아파트경로당(운천신봉동)", "시설유형": "특정계층이용시설-회원이용시설", "주소": "충청북도 청주시 흥덕구 사운로324번길 14", "시간": "기본 : 09:00 ~ 18:00 (월-금)", "구분": "특정인 이용가능" }, "geometry": { "type": "Point", "coordinates": [ 127.471025850742393, 36.655877585846973 ] } },
{ "type": "Feature", "properties": { "fid": 2386, "시설명": "삼정백조아파트경로당", "시설유형": "특정계층이용시설-회원이용시설", "주소": "충청북도 청주시 흥덕구 1순환로513번길 33", "시간": "기본 : 09:00 ~ 18:00 (월-금)", "구분": "특정인 이용가능" }, "geometry": { "type": "Point", "coordinates": [ 127.467891271977265, 36.645862565309365 ] } },
{ "type": "Feature", "properties": { "fid": 2418, "시설명": "새로나경로당", "시설유형": "특정계층이용시설-회원이용시설", "주소": "충청북도 청주시 흥덕구 봉명로233번길 14 , 새로나경로당 (봉명동)", "시간": "기본 : 13:00 ~ 17:00 (월,화,수,목,금,토,일)", "구분": "특정인 이용가능" }, "geometry": { "type": "Point", "coordinates": [ 127.467725024128725, 36.640946405891704 ] } },
{ "type": "Feature", "properties": { "fid": 1996, "시설명": "수곡2동행정복지센터", "시설유형": "공공시설-공공청사", "주소": "충청북도 청주시 서원구 수곡로 61 , 수곡 제2동주민센터 (수곡동)", "시간": "기본 : 09:00 ~ 18:00 (평일) / 추가 : 10:00 ~ 18:00 (주말)", "구분": "누구나 이용가능" }, "geometry": { "type": "Point", "coordinates": [ 127.472005774290011, 36.617345387097309 ] } },
{ "type": "Feature", "properties": { "fid": 1952, "시설명": "수곡2동행정복지센터", "시설유형": "공공시설-공공청사", "주소": "충청북도 청주시 서원구 수곡로 61", "시간": "09:00~18:00(평일) / 10:00~18:00(주말)", "구분": "누구나 이용가능" }, "geometry": { "type": "Point", "coordinates": [ 127.472106179701427, 36.617236755109374 ] } },
{ "type": "Feature", "properties": { "fid": 1961, "시설명": "한마음1차경로당", "시설유형": "특정계층이용시설-회원이용시설", "주소": "충청북도 청주시 서원구 수곡로 78", "시간": "13:00 ~ 17:00 (월~일)", "구분": "특정인 이용가능" }, "geometry": { "type": "Point", "coordinates": [ 127.472459181661179, 36.618914518988312 ] } },
{ "type": "Feature", "properties": { "fid": 2005, "시설명": "한마음1차경로당", "시설유형": "특정계층이용시설-회원이용시설", "주소": "충청북도 청주시 서원구 수곡로 78 , 한마음1차 경로당 (수곡동)", "시간": "기본 : 13:00 ~ 17:00 (월,화,수,목,금,토,일)", "구분": "특정인 이용가능" }, "geometry": { "type": "Point", "coordinates": [ 127.472459181661179, 36.618914518988312 ] } },
{ "type": "Feature", "properties": { "fid": 1919, "시설명": "부영사랑으로경로당", "시설유형": "특정계층이용시설-회원이용시설", "주소": "충청북도 청주시 서원구 산남동 원흥로 14", "시간": "13:00 ~ 17:00 (월~일)", "구분": "특정인 이용가능" }, "geometry": { "type": "Point", "coordinates": [ 127.472826021849357, 36.6080386979446 ] } },
{ "type": "Feature", "properties": { "fid": 1920, "시설명": "현진에버빌경로당", "시설유형": "특정계층이용시설-회원이용시설", "주소": "충청북도 청주시 서원구 탑골로 6", "시간": "13:00 ~ 17:00 (월~일)", "구분": "특정인 이용가능" }, "geometry": { "type": "Point", "coordinates": [ 127.473147310257502, 36.611021524698721 ] } },
{ "type": "Feature", "properties": { "fid": 1953, "시설명": "청주신협수곡지소", "시설유형": "생활밀착민간시설-금융기관", "주소": "충청북도 청주시 서원구 구룡산로 259", "시간": "09:00 ~ 16:00 (월~금)", "구분": "누구나 이용가능" }, "geometry": { "type": "Point", "coordinates": [ 127.473442304620662, 36.617251700399066 ] } },
{ "type": "Feature", "properties": { "fid": 1997, "시설명": "청주신협수곡지소", "시설유형": "생활밀착민간시설-금융기관", "주소": "충청북도 청주시 서원구 구룡산로 259 , 청주신협수곡지소 (수곡동)", "시간": "기본 : 09:00 ~ 16:00 (월,화,수,목,금)", "구분": "누구나 이용가능" }, "geometry": { "type": "Point", "coordinates": [ 127.473442304620662, 36.617251700399066 ] } },
{ "type": "Feature", "properties": { "fid": 1960, "시설명": "안말경로당", "시설유형": "특정계층이용시설-회원이용시설", "주소": "충청북도 청주시 서원구 수곡로27번길 9", "시간": "13:00 ~ 17:00 (월~일)", "구분": "특정인 이용가능" }, "geometry": { "type": "Point", "coordinates": [ 127.473627011914431, 36.614593206887484 ] } },
{ "type": "Feature", "properties": { "fid": 2004, "시설명": "안말경로당", "시설유형": "특정계층이용시설-회원이용시설", "주소": "충청북도 청주시 서원구 수곡로27번길 9 , 안말경로당 (수곡동)", "시간": "기본 : 13:00 ~ 17:00 (월,화,수,목,금,토,일)", "구분": "특정인 이용가능" }, "geometry": { "type": "Point", "coordinates": [ 127.473627011914431, 36.614593206887484 ] } },
{ "type": "Feature", "properties": { "fid": 1914, "시설명": "LG전자베스트샵산남점", "시설유형": "생활밀착민간시설-유통·판매·서비스시설", "주소": "충청북도 청주시 서원구 산남로 3", "시간": "11:00 ~ 20:00 (월~일)", "구분": "누구나 이용가능" }, "geometry": { "type": "Point", "coordinates": [ 127.473778168572366, 36.612200732748882 ] } },
{ "type": "Feature", "properties": { "fid": 1959, "시설명": "세원청실경로당", "시설유형": "특정계층이용시설-회원이용시설", "주소": "충청북도 청주시 서원구 수곡로 46", "시간": "13:00 ~ 17:00 (월~일)", "구분": "특정인 이용가능" }, "geometry": { "type": "Point", "coordinates": [ 127.473926688085228, 36.616575033714355 ] } },
{ "type": "Feature", "properties": { "fid": 2003, "시설명": "세원청실경로당", "시설유형": "특정계층이용시설-회원이용시설", "주소": "충청북도 청주시 서원구 수곡로 46 (산남세원청실아파트)", "시간": "기본 : 13:00 ~ 17:00 (월,화,수,목,금,토,일)", "구분": "특정인 이용가능" }, "geometry": { "type": "Point", "coordinates": [ 127.473926688085228, 36.616575033714355 ] } },
{ "type": "Feature", "properties": { "fid": 2002, "시설명": "주공4차경로당", "시설유형": "특정계층이용시설-회원이용시설", "주소": "충청북도 청주시 서원구 구룡산로 275-13 (산남주공2.4단지아파트 4단지관리사무소)", "시간": "기본 : 13:00 ~ 17:00 (월,화,수,목,금,토,일)", "구분": "특정인 이용가능" }, "geometry": { "type": "Point", "coordinates": [ 127.474213272148461, 36.619348642055265 ] } },
{ "type": "Feature", "properties": { "fid": 1958, "시설명": "주공4차경로당", "시설유형": "특정계층이용시설-회원이용시설", "주소": "충청북도 청주시 서원구 구룡산로 275-13", "시간": "13:00 ~ 17:00 (월~일)", "구분": "특정인 이용가능" }, "geometry": { "type": "Point", "coordinates": [ 127.474213272148461, 36.619348642055265 ] } },
{ "type": "Feature", "properties": { "fid": 1922, "시설명": "대원칸타빌2차경로당", "시설유형": "특정계층이용시설-회원이용시설", "주소": "충청북도 청주시 서원구 산미로 143", "시간": "13:00 ~ 17:00 (월~일)", "구분": "특정인 이용가능" }, "geometry": { "type": "Point", "coordinates": [ 127.474646442545975, 36.609882444036522 ] } },
{ "type": "Feature", "properties": { "fid": 1956, "시설명": "두진백로경로당(수곡2동)", "시설유형": "특정계층이용시설-회원이용시설", "주소": "충청북도 청주시 서원구 수곡로 36", "시간": "13:00 ~ 17:00 (월~일)", "구분": "특정인 이용가능" }, "geometry": { "type": "Point", "coordinates": [ 127.474784324955849, 36.615613657043525 ] } },
{ "type": "Feature", "properties": { "fid": 2000, "시설명": "두진백로경로당(수곡2동)", "시설유형": "특정계층이용시설-회원이용시설", "주소": "충청북도 청주시 서원구 수곡로 36 (두진하트리움아파트 관리사무소)", "시간": "기본 : 13:00 ~ 17:00 (월,화,수,목,금,토,일)", "구분": "특정인 이용가능" }, "geometry": { "type": "Point", "coordinates": [ 127.474784324955849, 36.615613657043525 ] } },
{ "type": "Feature", "properties": { "fid": 1917, "시설명": "새동네경로당", "시설유형": "특정계층이용시설-회원이용시설", "주소": "충청북도 청주시 서원구 매봉로29번길 21", "시간": "13:00 ~ 17:00 (월~일)", "구분": "특정인 이용가능" }, "geometry": { "type": "Point", "coordinates": [ 127.476408829711914, 36.612523875441319 ] } },
{ "type": "Feature", "properties": { "fid": 2001, "시설명": "구룡산경로당", "시설유형": "특정계층이용시설-회원이용시설", "주소": "충청북도 청주시 서원구 구룡산로 292 (산남주공2단지아파트)", "시간": "기본 : 10:00 ~ 17:00 (월,화,수,목,금,토,일)", "구분": "특정인 이용가능" }, "geometry": { "type": "Point", "coordinates": [ 127.476638029959176, 36.617214755893464 ] } },
{ "type": "Feature", "properties": { "fid": 1957, "시설명": "구룡산경로당", "시설유형": "특정계층이용시설-회원이용시설", "주소": "충청북도 청주시 서원구 구룡산로 292", "시간": "10:00 ~ 17:00 (월~일)", "구분": "특정인 이용가능" }, "geometry": { "type": "Point", "coordinates": [ 127.476638029959176, 36.617214755893464 ] } },
{ "type": "Feature", "properties": { "fid": 1910, "시설명": "분평계룡리슈빌아파트경로당", "시설유형": "특정계층이용시설-회원이용시설", "주소": "충청북도 청주시 서원구 매봉로 28", "시간": "13:00 ~ 17:00 (월~일)", "구분": "특정인 이용가능" }, "geometry": { "type": "Point", "coordinates": [ 127.478482969738337, 36.613072474597189 ] } },
{ "type": "Feature", "properties": { "fid": 1927, "시설명": "산남동행정복지센터", "시설유형": "공공시설-공공청사", "주소": "충청북도 청주시 서원구 안뜸로12번길 42", "시간": "09:00 ~ 18:00 (월~금)", "구분": "누구나 이용가능" }, "geometry": { "type": "Point", "coordinates": [ 127.478565662204346, 36.610168853944018 ] } },
{ "type": "Feature", "properties": { "fid": 1916, "시설명": "대승스카이빌경로당", "시설유형": "특정계층이용시설-회원이용시설", "주소": "충청북도 청주시 서원구 안뜸로12번길 13", "시간": "13:00 ~ 17:00 (월~일)", "구분": "특정인 이용가능" }, "geometry": { "type": "Point", "coordinates": [ 127.479269323598018, 36.611669932399238 ] } },
{ "type": "Feature", "properties": { "fid": 1994, "시설명": "수곡1동행정복지센터", "시설유형": "공공시설-공공청사", "주소": "충청북도 청주시 서원구 구룡산로 322", "시간": "기본 : 09:00 ~ 18:00 (평일) / 추가 : 10:00 ~ 18:00 (주말)", "구분": "누구나 이용가능" }, "geometry": { "type": "Point", "coordinates": [ 127.479982751936859, 36.618282521302049 ] } },
{ "type": "Feature", "properties": { "fid": 1950, "시설명": "수곡1동행정복지센터", "시설유형": "공공시설-공공청사", "주소": "충청북도 청주시 서원구 구룡산로 322", "시간": "09:00~18:00(평일) / 10:00~18:00(주말)", "구분": "누구나 이용가능" }, "geometry": { "type": "Point", "coordinates": [ 127.479982751936859, 36.618282521302049 ] } },
{ "type": "Feature", "properties": { "fid": 1995, "시설명": "새텃말경로당", "시설유형": "특정계층이용시설-회원이용시설", "주소": "충청북도 청주시 서원구 매봉로60번길 40-2", "시간": "기본 : 09:00 ~ 17:00 (월,화,수,목,금) / 연장 : 17:00 ~ 18:00", "구분": "특정인 이용가능" }, "geometry": { "type": "Point", "coordinates": [ 127.480384448185319, 36.615347537981279 ] } },
{ "type": "Feature", "properties": { "fid": 1951, "시설명": "새텃말경로당", "시설유형": "특정계층이용시설-회원이용시설", "주소": "충청북도 청주시 서원구 매봉로60번길 40-2", "시간": "09:00 ~ 18:00 (월~금)", "구분": "특정인 이용가능" }, "geometry": { "type": "Point", "coordinates": [ 127.480384448185319, 36.615347537981279 ] } },
{ "type": "Feature", "properties": { "fid": 1908, "시설명": "백수경로당(우성1차)", "시설유형": "특정계층이용시설-회원이용시설", "주소": "충청북도 청주시 서원구 1순환로1013번길 10", "시간": "13:00 ~ 17:00 (월~일)", "구분": "특정인 이용가능" }, "geometry": { "type": "Point", "coordinates": [ 127.480424862681801, 36.609162485365751 ] } },
{ "type": "Feature", "properties": { "fid": 1909, "시설명": "보성아파트경로당", "시설유형": "특정계층이용시설-회원이용시설", "주소": "충청북도 청주시 서원구 매봉로2번길 55", "시간": "13:00 ~ 17:00 (월~일)", "구분": "특정인 이용가능" }, "geometry": { "type": "Point", "coordinates": [ 127.480976093903237, 36.610929624530449 ] } },
{ "type": "Feature", "properties": { "fid": 1918, "시설명": "럭키아파트경로당", "시설유형": "특정계층이용시설-회원이용시설", "주소": "충청북도 청주시 서원구 안뜸로39번길 5-1", "시간": "13:00 ~ 17:00 (월~일)", "구분": "특정인 이용가능" }, "geometry": { "type": "Point", "coordinates": [ 127.481075406308236, 36.612450518393153 ] } },
{ "type": "Feature", "properties": { "fid": 1925, "시설명": "오복경로당", "시설유형": "특정계층이용시설-회원이용시설", "주소": "충청북도 청주시 서원구 안뜸로 44", "시간": "13:00 ~ 17:00 (월~일)", "구분": "특정인 이용가능" }, "geometry": { "type": "Point", "coordinates": [ 127.482317190006853, 36.611933071727691 ] } },
{ "type": "Feature", "properties": { "fid": 1926, "시설명": "낙원경로당(우성2차)", "시설유형": "특정계층이용시설-회원이용시설", "주소": "충청북도 청주시 서원구 청남로2005번길 40", "시간": "13:00 ~ 17:00 (월~일)", "구분": "특정인 이용가능" }, "geometry": { "type": "Point", "coordinates": [ 127.482706533630335, 36.610961938132313 ] } },
{ "type": "Feature", "properties": { "fid": 1715, "시설명": "가중1리경로당", "시설유형": "특정계층이용시설-회원이용시설", "주소": "충청북도 청주시 상당구 남일면 가중길 37", "시간": "기본 : 13:00 ~ 17:00 (월,화,수,목,금)", "구분": "특정인 이용가능" }, "geometry": { "type": "Point", "coordinates": [ 127.478545878042326, 36.576181720879646 ] } },
{ "type": "Feature", "properties": { "fid": 1941, "시설명": "서당경로당", "시설유형": "특정계층이용시설-회원이용시설", "주소": "충청북도 청주시 서원구 가장로353번길 169-2", "시간": "13:00 ~ 17:00 (월~금)", "구분": "특정인 이용가능" }, "geometry": { "type": "Point", "coordinates": [ 127.482322800558805, 36.58530789477706 ] } },
{ "type": "Feature", "properties": { "fid": 1716, "시설명": "신송3리경로당", "시설유형": "특정계층이용시설-회원이용시설", "주소": "충청북도 청주시 상당구 남일면 가좌신송로 286", "시간": "기본 : 13:00 ~ 17:00 (월,화,수,목,금)", "구분": "특정인 이용가능" }, "geometry": { "type": "Point", "coordinates": [ 127.484938386649361, 36.575272142948087 ] } },
{ "type": "Feature", "properties": { "fid": 1940, "시설명": "신목골경로당", "시설유형": "특정계층이용시설-회원이용시설", "주소": "충청북도 청주시 서원구 가장로383번길 8-2", "시간": "13:00 ~ 17:00 (월~금)", "구분": "특정인 이용가능" }, "geometry": { "type": "Point", "coordinates": [ 127.487370933082886, 36.592779399216909 ] } },
{ "type": "Feature", "properties": { "fid": 1717, "시설명": "신송1리경로당", "시설유형": "특정계층이용시설-회원이용시설", "주소": "충청북도 청주시 상당구 남일면 신송1길 9-8", "시간": "13:00 ~ 17:00 (월~금)", "구분": "특정인 이용가능" }, "geometry": { "type": "Point", "coordinates": [ 127.489360087184011, 36.578599983255764 ] } },
{ "type": "Feature", "properties": { "fid": 1718, "시설명": "신송2리경로당", "시설유형": "특정계층이용시설-회원이용시설", "주소": "충청북도 청주시 상당구 남일면 신송새터길 42", "시간": "13:00 ~ 17:00 (월~금)", "구분": "특정인 이용가능" }, "geometry": { "type": "Point", "coordinates": [ 127.489510083524877, 36.574163617549807 ] } },
{ "type": "Feature", "properties": { "fid": 1942, "시설명": "용평경로당", "시설유형": "특정계층이용시설-회원이용시설", "주소": "충청북도 청주시 서원구 가장로332번길 36-8", "시간": "13:00 ~ 17:00 (월~금)", "구분": "특정인 이용가능" }, "geometry": { "type": "Point", "coordinates": [ 127.491424148352024, 36.588381856619151 ] } },
{ "type": "Feature", "properties": { "fid": 1720, "시설명": "가산1리경로당", "시설유형": "특정계층이용시설-회원이용시설", "주소": "충청북도 청주시 상당구 남일면 가산양달길 21", "시간": "13:00 ~ 17:00 (월~금)", "구분": "특정인 이용가능" }, "geometry": { "type": "Point", "coordinates": [ 127.492464118164506, 36.565167766988822 ] } },
{ "type": "Feature", "properties": { "fid": 1692, "시설명": "화당1리할머니경로당", "시설유형": "특정계층이용시설-회원이용시설", "주소": "충청북도 청주시 상당구 남일면 화당길 27", "시간": "기본 : 13:00 ~ 17:00 (월,화,수,목,금)", "구분": "특정인 이용가능" }, "geometry": { "type": "Point", "coordinates": [ 127.498500705298483, 36.554353675685434 ] } },
{ "type": "Feature", "properties": { "fid": 1719, "시설명": "가산2리경로당", "시설유형": "특정계층이용시설-회원이용시설", "주소": "충청북도 청주시 상당구 남일면가산길 45-23", "시간": "13:00 ~ 17:00 (월~금)", "구분": "특정인 이용가능" }, "geometry": { "type": "Point", "coordinates": [ 127.499441214395958, 36.561149469996202 ] } },
{ "type": "Feature", "properties": { "fid": 1721, "시설명": "가산3리경로당", "시설유형": "특정계층이용시설-회원이용시설", "주소": "충청북도 청주시 상당구 남일면 가산1길 46", "시간": "13:00 ~ 17:00 (월~금)", "구분": "특정인 이용가능" }, "geometry": { "type": "Point", "coordinates": [ 127.50271744532273, 36.573673399962964 ] } },
{ "type": "Feature", "properties": { "fid": 1706, "시설명": "효촌2리경로당", "시설유형": "특정계층이용시설-회원이용시설", "주소": "충청북도 청주시 상당구 남일면 효촌송정2길 8-30", "시간": "기본 : 13:00 ~ 17:00 (월,화,수,목,금)", "구분": "특정인 이용가능" }, "geometry": { "type": "Point", "coordinates": [ 127.50666804296084, 36.587063655251292 ] } },
{ "type": "Feature", "properties": { "fid": 1686, "시설명": "문주2리경로당", "시설유형": "특정계층이용시설-회원이용시설", "주소": "충청북도 청주시 상당구 남일면 참나무골길 4-27", "시간": "기본 : 13:00 ~ 17:00 (월,화,수,목,금)", "구분": "특정인 이용가능" }, "geometry": { "type": "Point", "coordinates": [ 127.508719987190972, 36.556111924732058 ] } },
{ "type": "Feature", "properties": { "fid": 1704, "시설명": "효촌1리경로당", "시설유형": "특정계층이용시설-회원이용시설", "주소": "충청북도 청주시 상당구 남일면 효촌송암길 18-6", "시간": "기본 : 13:00 ~ 17:00 (월,화,수,목,금)", "구분": "특정인 이용가능" }, "geometry": { "type": "Point", "coordinates": [ 127.508814644868608, 36.589725648203149 ] } },
{ "type": "Feature", "properties": { "fid": 1689, "시설명": "고은4리경로당", "시설유형": "특정계층이용시설-회원이용시설", "주소": "충청북도 청주시 상당구 남일면참나무골길 5-5", "시간": "기본 : 13:00 ~ 17:00 (월,화,수,목,금)", "구분": "특정인 이용가능" }, "geometry": { "type": "Point", "coordinates": [ 127.508891104806509, 36.557504830252441 ] } },
{ "type": "Feature", "properties": { "fid": 1688, "시설명": "고은1리경로당", "시설유형": "특정계층이용시설-회원이용시설", "주소": "충청북도 청주시 상당구 남일면 단재로 748-19", "시간": "기본 : 13:00 ~ 17:00 (월,화,수,목,금)", "구분": "특정인 이용가능" }, "geometry": { "type": "Point", "coordinates": [ 127.509024293573077, 36.565455020361306 ] } },
{ "type": "Feature", "properties": { "fid": 1700, "시설명": "남일면분회경로당", "시설유형": "특정계층이용시설-회원이용시설", "주소": "충청북도 청주시 상당구 남일면단재로 501", "시간": "기본 : 13:00 ~ 17:00 (월,화,수,목,금)", "구분": "특정인 이용가능" }, "geometry": { "type": "Point", "coordinates": [ 127.509505737551123, 36.58678596850649 ] } },
{ "type": "Feature", "properties": { "fid": 1712, "시설명": "남일면다목적회관(1층식당)", "시설유형": "공공시설-복지·문화·체육시설", "주소": "충청북도 청주시 상당구 남일면 단재로 501", "시간": "기본 : 09:00 ~ 18:00 (월,화,수,목,금)", "구분": "누구나 이용가능" }, "geometry": { "type": "Point", "coordinates": [ 127.509505737551123, 36.58678596850649 ] } },
{ "type": "Feature", "properties": { "fid": 1711, "시설명": "남일면행정복지센터", "시설유형": "공공시설-공공청사", "주소": "충청북도 청주시 상당구 남일면 단재로 501", "시간": "기본 : 09:00 ~ 18:00 (월,화,수,목,금)", "구분": "누구나 이용가능" }, "geometry": { "type": "Point", "coordinates": [ 127.509505737551123, 36.58678596850649 ] } },
{ "type": "Feature", "properties": { "fid": 1702, "시설명": "효촌4리경로당", "시설유형": "특정계층이용시설-회원이용시설", "주소": "충청북도 청주시 상당구 남일면 효촌송정3길 14 (보람주택)", "시간": "기본 : 13:00 ~ 17:00 (월,화,수,목,금)", "구분": "특정인 이용가능" }, "geometry": { "type": "Point", "coordinates": [ 127.509884434902673, 36.585228521133118 ] } },
{ "type": "Feature", "properties": { "fid": 1705, "시설명": "효촌6리경로당", "시설유형": "특정계층이용시설-회원이용시설", "주소": "충청북도 청주시 상당구 남일면 효촌송정1길 6-6", "시간": "기본 : 13:00 ~ 17:00 (월,화,수,목,금)", "구분": "특정인 이용가능" }, "geometry": { "type": "Point", "coordinates": [ 127.510105950026386, 36.588019045813965 ] } },
{ "type": "Feature", "properties": { "fid": 1701, "시설명": "효촌8리경로당", "시설유형": "특정계층이용시설-회원이용시설", "주소": "충청북도 청주시 상당구 남일면 효촌송정1길 30 (주원애뜰 1차)", "시간": "기본 : 09:00 ~ 18:00 (월,화,수,목,금)", "구분": "특정인 이용가능" }, "geometry": { "type": "Point", "coordinates": [ 127.510433456350839, 36.586326575554217 ] } },
{ "type": "Feature", "properties": { "fid": 1703, "시설명": "효촌7리경로당", "시설유형": "특정계층이용시설-회원이용시설", "주소": "충청북도 청주시 상당구 남일면 효촌송정1길 5-2", "시간": "기본 : 13:00 ~ 17:00 (월,화,수,목,금)", "구분": "특정인 이용가능" }, "geometry": { "type": "Point", "coordinates": [ 127.51066711197835, 36.58792890481822 ] } },
{ "type": "Feature", "properties": { "fid": 1709, "시설명": "효촌5리경로당", "시설유형": "특정계층이용시설-회원이용시설", "주소": "충청북도 청주시 상당구 남일면효촌송암길 20-30", "시간": "기본 : 13:00 ~ 17:00 (월,화,수,목,금)", "구분": "특정인 이용가능" }, "geometry": { "type": "Point", "coordinates": [ 127.510786924403732, 36.589699580785492 ] } },
{ "type": "Feature", "properties": { "fid": 1684, "시설명": "쌍수1리경로당", "시설유형": "특정계층이용시설-회원이용시설", "주소": "충청북도 청주시 상당구 남일면 쌍수길 3", "시간": "기본 : 13:00 ~ 17:00 (월,화,수,목,금)", "구분": "특정인 이용가능" }, "geometry": { "type": "Point", "coordinates": [ 127.511027033984192, 36.577745315669674 ] } },
{ "type": "Feature", "properties": { "fid": 1685, "시설명": "고은1리아래고분터경로당", "시설유형": "특정계층이용시설-회원이용시설", "주소": "충청북도 청주시 상당구 남일면 고은2길 23-34", "시간": "기본 : 13:00 ~ 17:00 (월,화,수,목,금)", "구분": "특정인 이용가능" }, "geometry": { "type": "Point", "coordinates": [ 127.511827850229452, 36.56440219724 ] } },
{ "type": "Feature", "properties": { "fid": 1699, "시설명": "효촌3리경로당", "시설유형": "특정계층이용시설-회원이용시설", "주소": "충청북도 청주시 상당구 남일면효덕길 26-20", "시간": "기본 : 13:00 ~ 17:00 (월,화,수,목,금)", "구분": "특정인 이용가능" }, "geometry": { "type": "Point", "coordinates": [ 127.512577636666535, 36.582716498343665 ] } },
{ "type": "Feature", "properties": { "fid": 1690, "시설명": "고은2리경로당", "시설유형": "특정계층이용시설-회원이용시설", "주소": "충청북도 청주시 상당구 남일면 고은길 30", "시간": "기본 : 13:00 ~ 17:00 (월,화,수,목,금)", "구분": "특정인 이용가능" }, "geometry": { "type": "Point", "coordinates": [ 127.513216728847596, 36.57308358423532 ] } },
{ "type": "Feature", "properties": { "fid": 1683, "시설명": "쌍수2리경로당", "시설유형": "특정계층이용시설-회원이용시설", "주소": "충청북도 청주시 상당구 남일면 쌍수관기길 20-1", "시간": "기본 : 13:00 ~ 17:00 (월,화,수,목,금)", "구분": "특정인 이용가능" }, "geometry": { "type": "Point", "coordinates": [ 127.513718336200938, 36.575850573562143 ] } },
{ "type": "Feature", "properties": { "fid": 1691, "시설명": "고은3리경로당", "시설유형": "특정계층이용시설-회원이용시설", "주소": "충청북도 청주시 상당구 남일면윗고분터길 35", "시간": "기본 : 13:00 ~ 17:00 (월,화,수,목,금)", "구분": "특정인 이용가능" }, "geometry": { "type": "Point", "coordinates": [ 127.518112506123501, 36.56563682067236 ] } },
{ "type": "Feature", "properties": { "fid": 1708, "시설명": "송암2리경로당", "시설유형": "특정계층이용시설-회원이용시설", "주소": "충청북도 청주시 상당구 남일면 효촌송암1길 109-15", "시간": "기본 : 13:00 ~ 17:00 (월,화,수,목,금)", "구분": "특정인 이용가능" }, "geometry": { "type": "Point", "coordinates": [ 127.519904451534913, 36.590321915892773 ] } },
{ "type": "Feature", "properties": { "fid": 1687, "시설명": "고은5리경로당", "시설유형": "특정계층이용시설-회원이용시설", "주소": "충청북도 청주시 상당구 남일면 쌍암동길 44-9", "시간": "기본 : 09:00 ~ 18:00 (월,화,수,목,금)", "구분": "특정인 이용가능" }, "geometry": { "type": "Point", "coordinates": [ 127.5258834829975, 36.56900781425135 ] } },
{ "type": "Feature", "properties": { "fid": 1677, "시설명": "노동2리경로당", "시설유형": "특정계층이용시설-회원이용시설", "주소": "충청북도 청주시 상당구 가덕면 노동2길 18", "시간": "기본 : 13:00 ~ 17:00 (월,화,수,목,금,토,일)", "구분": "특정인 이용가능" }, "geometry": { "type": "Point", "coordinates": [ 127.52822481284737, 36.555279464678733 ] } },
{ "type": "Feature", "properties": { "fid": 1707, "시설명": "송암1리경로당", "시설유형": "특정계층이용시설-회원이용시설", "주소": "충청북도 청주시 상당구 남일면 효촌송암1길 214", "시간": "기본 : 13:00 ~ 17:00 (월,화,수,목,금)", "구분": "특정인 이용가능" }, "geometry": { "type": "Point", "coordinates": [ 127.529851907463907, 36.592772020680776 ] } },
{ "type": "Feature", "properties": { "fid": 1984, "시설명": "신목골경로당", "시설유형": "특정계층이용시설-회원이용시설", "주소": "충청북도 청주시 서원구 가장로383번길 8-2, 신목골 경로당 (장암동)", "시간": "기본 : 13:00 ~ 17:00 (월,화,수,목,금)", "구분": "특정인 이용가능" }, "geometry": { "type": "Point", "coordinates": [ 127.487370933082886, 36.592779399216909 ] } },
{ "type": "Feature", "properties": { "fid": 1985, "시설명": "서당경로당", "시설유형": "특정계층이용시설-회원이용시설", "주소": "충청북도 청주시 서원구 가장로353번길 169-2, 서당 경로당 (장암동)", "시간": "기본 : 13:00 ~ 17:00 (월,화,수,목,금)", "구분": "특정인 이용가능" }, "geometry": { "type": "Point", "coordinates": [ 127.482322800558805, 36.58530789477706 ] } },
{ "type": "Feature", "properties": { "fid": 1986, "시설명": "용평경로당", "시설유형": "특정계층이용시설-회원이용시설", "주소": "충청북도 청주시 서원구 가장로332번길 36-8, 용평경로당 (장암동)", "시간": "기본 : 13:00 ~ 17:00 (월,화,수,목,금)", "구분": "특정인 이용가능" }, "geometry": { "type": "Point", "coordinates": [ 127.491424148352024, 36.588381856619151 ] } },
{ "type": "Feature", "properties": { "fid": 2279, "시설명": "럭키3차아파트경로당", "시설유형": "특정계층이용시설-회원이용시설", "주소": "충청북도 청주시 청원구 충청대로139번길 17-10 (율량동)", "시간": "기본 : 13:00 ~ 17:00 (월,화,수,목,금,토,일)", "구분": "특정인 이용가능" }, "geometry": { "type": "Point", "coordinates": [ 127.492886131785028, 36.668797579002188 ] } },
{ "type": "Feature", "properties": { "fid": 2260, "시설명": "진화하이츠경로당", "시설유형": "특정계층이용시설-회원이용시설", "주소": "충청북도 청주시 청원구 율봉로159번길 10 (현대아파트 301동)", "시간": "기본 : 13:00 ~ 17:00 (월,화,수,목,금,토,일)", "구분": "특정인 이용가능" }, "geometry": { "type": "Point", "coordinates": [ 127.486942742533998, 36.669247732148335 ] } },
{ "type": "Feature", "properties": { "fid": 2261, "시설명": "현대아파트경로당", "시설유형": "특정계층이용시설-회원이용시설", "주소": "충청북도 청주시 청원구 율봉로159번길 10 (현대아파트 301동)", "시간": "기본 : 13:00 ~ 17:00 (월,화,수,목,금,토,일)", "구분": "특정인 이용가능" }, "geometry": { "type": "Point", "coordinates": [ 127.486942742533998, 36.669247732148335 ] } },
{ "type": "Feature", "properties": { "fid": 2262, "시설명": "현대산업아파트경로당", "시설유형": "특정계층이용시설-회원이용시설", "주소": "충청북도 청주시 청원구 주성로132번길 27 (현대아파트 11동)", "시간": "기본 : 13:00 ~ 17:00 (월,화,수,목,금,토,일)", "구분": "특정인 이용가능" }, "geometry": { "type": "Point", "coordinates": [ 127.482759168997092, 36.669594015398253 ] } },
{ "type": "Feature", "properties": { "fid": 2280, "시설명": "두진백로아파트경로당(율량사천동)", "시설유형": "특정계층이용시설-회원이용시설", "주소": "충청북도 청주시 청원구 율봉로201번길 34 (율량동, 두진백로그린타운)", "시간": "기본 : 13:00 ~ 17:00 (월,화,수,목,금,토,일)", "구분": "특정인 이용가능" }, "geometry": { "type": "Point", "coordinates": [ 127.492212884694823, 36.669870215868038 ] } },
{ "type": "Feature", "properties": { "fid": 2283, "시설명": "럭키아파트경로당", "시설유형": "특정계층이용시설-회원이용시설", "주소": "충청북도 청주시 청원구 율봉로209번길 40 (율량동)", "시간": "기본 : 13:00 ~ 17:00 (월,화,수,목,금,토,일)", "구분": "특정인 이용가능" }, "geometry": { "type": "Point", "coordinates": [ 127.494165013189374, 36.670229357073268 ] } },
{ "type": "Feature", "properties": { "fid": 2285, "시설명": "삼정1차아파트경로당", "시설유형": "특정계층이용시설-회원이용시설", "주소": "충청북도 청주시 청원구 율봉로201번길 50 (율량동, 삼정아파트)", "시간": "기본 : 13:00 ~ 17:00 (월,화,수,목,금,토,일)", "구분": "특정인 이용가능" }, "geometry": { "type": "Point", "coordinates": [ 127.492508100766969, 36.670795118243184 ] } },
{ "type": "Feature", "properties": { "fid": 2287, "시설명": "삼정2차아파트경로당", "시설유형": "특정계층이용시설-회원이용시설", "주소": "충청북도 청주시 청원구 율봉로175번길 54 (율량동, 삼정2차아파트)", "시간": "기본 : 13:00 ~ 17:00 (월,화,수,목,금,토,일)", "구분": "특정인 이용가능" }, "geometry": { "type": "Point", "coordinates": [ 127.489840898505648, 36.670791928133184 ] } },
{ "type": "Feature", "properties": { "fid": 2282, "시설명": "부강마을아파트경로당", "시설유형": "특정계층이용시설-회원이용시설", "주소": "충청북도 청주시 청원구 공항로150번길 59 (율량동, 율량 부강마을 아파트 101동)", "시간": "기본 : 13:00 ~ 17:00 (월,화,수,목,금,토,일)", "구분": "특정인 이용가능" }, "geometry": { "type": "Point", "coordinates": [ 127.487607128524772, 36.670806186624624 ] } },
{ "type": "Feature", "properties": { "fid": 2305, "시설명": "대원칸타빌2차아파트경로당", "시설유형": "특정계층이용시설-회원이용시설", "주소": "충청북도 청주시 청원구 주중동 율량로 77 , 상가 (주중동)", "시간": "기본 : 13:00 ~ 17:00 (월,화,수,목,금,토,일)", "구분": "특정인 이용가능" }, "geometry": { "type": "Point", "coordinates": [ 127.494757724764511, 36.673596356106444 ] } },
{ "type": "Feature", "properties": { "fid": 2304, "시설명": "율량2LH2단지아파트경로당", "시설유형": "특정계층이용시설-회원이용시설", "주소": "충청북도 청주시 청원구 주중동 율량로 47 , 경로당,작은도서관 (주중동)", "시간": "기본 : 13:00 ~ 17:00 (월,화,수,목,금,토,일)", "구분": "특정인 이용가능" }, "geometry": { "type": "Point", "coordinates": [ 127.491307151063253, 36.673925910760396 ] } },
{ "type": "Feature", "properties": { "fid": 2306, "시설명": "주중13통경로당", "시설유형": "특정계층이용시설-회원이용시설", "주소": "충청북도 청주시 청원구 주중로2번길 159-35 (주중동)", "시간": "기본 : 13:00 ~ 17:00 (월,화,수,목,금,토,일)", "구분": "특정인 이용가능" }, "geometry": { "type": "Point", "coordinates": [ 127.490375527543705, 36.68344450918098 ] } },
{ "type": "Feature", "properties": { "fid": 2307, "시설명": "주중12통경로당", "시설유형": "특정계층이용시설-회원이용시설", "주소": "충청북도 청주시 청원구 주중로26번길 17", "시간": "기본 : 13:00 ~ 17:00 (월,화,수,목,금,토,일)", "구분": "특정인 이용가능" }, "geometry": { "type": "Point", "coordinates": [ 127.485518877283567, 36.68656468648868 ] } },
{ "type": "Feature", "properties": { "fid": 2298, "시설명": "외남2통경로당", "시설유형": "특정계층이용시설-회원이용시설", "주소": "충청북도 청주시 청원구 외남로 68 , 외남2통경로당 (외남동)", "시간": "기본 : 13:00 ~ 17:00 (월,화,수,목,금,토,일)", "구분": "특정인 이용가능" }, "geometry": { "type": "Point", "coordinates": [ 127.487342175423294, 36.69932457047733 ] } },
{ "type": "Feature", "properties": { "fid": 2297, "시설명": "외남1통경로당", "시설유형": "특정계층이용시설-회원이용시설", "주소": "충청북도 청주시 청원구 외남로 26 , 외남1통경로당 (외남동)", "시간": "기본 : 13:00 ~ 17:00 (월,화,수,목,금,토,일)", "구분": "특정인 이용가능" }, "geometry": { "type": "Point", "coordinates": [ 127.48284861660747, 36.699615554739069 ] } },
{ "type": "Feature", "properties": { "fid": 2178, "시설명": "화상2리경로당", "시설유형": "특정계층이용시설-회원이용시설", "주소": "충청북도 청주시 청원구 북이면 화상신여울길 7-1", "시간": "기본 : 10:00 ~ 18:00 (월~일)", "구분": "특정인 이용가능" }, "geometry": { "type": "Point", "coordinates": [ 127.484032492163692, 36.727990977730606 ] } },
{ "type": "Feature", "properties": { "fid": 2309, "시설명": "주중11통경로당", "시설유형": "특정계층이용시설-회원이용시설", "주소": "충청북도 청주시 청원구 충청대로233번길 64-15 (주중동)", "시간": "기본 : 13:00 ~ 17:00 (월,화,수,목,금,토,일)", "구분": "특정인 이용가능" }, "geometry": { "type": "Point", "coordinates": [ 127.494074394576216, 36.678243432414817 ] } },
{ "type": "Feature", "properties": { "fid": 2310, "시설명": "대원칸타빌1차아파트경로당", "시설유형": "특정계층이용시설-회원이용시설", "주소": "충청북도 청주시 청원구 주성동 율량로 103 , 상가 (주성동)", "시간": "기본 : 13:00 ~ 17:00 (월,화,수,목,금,토,일)", "구분": "특정인 이용가능" }, "geometry": { "type": "Point", "coordinates": [ 127.497821067021789, 36.673324332166345 ] } },
{ "type": "Feature", "properties": { "fid": 2314, "시설명": "율량2LH1단지아파트경로당", "시설유형": "특정계층이용시설-회원이용시설", "주소": "충청북도 청주시 청원구 주중동 율량로 17 , 보육시설 (주중동)", "시간": "기본 : 13:00 ~ 17:00 (월,화,수,목,금,토,일)", "구분": "특정인 이용가능" }, "geometry": { "type": "Point", "coordinates": [ 127.488288568496372, 36.67393627808552 ] } },
{ "type": "Feature", "properties": { "fid": 1989, "시설명": "장성경로당", "시설유형": "특정계층이용시설-회원이용시설", "주소": "충청북도 청주시 서원구 궁뜰로67번길 32 , 장성경로당 (분평동)", "시간": "기본 : 13:00 ~ 17:00 (월,화,수,목,금)", "구분": "특정인 이용가능" }, "geometry": { "type": "Point", "coordinates": [ 127.483541319950334, 36.59946889872473 ] } },
{ "type": "Feature", "properties": { "fid": 1945, "시설명": "장성경로당", "시설유형": "특정계층이용시설-회원이용시설", "주소": "충청북도 청주시 서원구 궁뜰로67번길 32", "시간": "13:00 ~ 17:00 (월~금)", "구분": "특정인 이용가능" }, "geometry": { "type": "Point", "coordinates": [ 127.483541319950334, 36.59946889872473 ] } },
{ "type": "Feature", "properties": { "fid": 1930, "시설명": "주공6경로당", "시설유형": "특정계층이용시설-회원이용시설", "주소": "충청북도 청주시 서원구 1순환로1137번길 19", "시간": "13:00 ~ 17:00 (월~금)", "구분": "특정인 이용가능" }, "geometry": { "type": "Point", "coordinates": [ 127.491504514259262, 36.607411031007565 ] } },
{ "type": "Feature", "properties": { "fid": 1931, "시설명": "주공5경로당", "시설유형": "특정계층이용시설-회원이용시설", "주소": "충청북도 청주시 서원구 분평로 88-1", "시간": "13:00 ~ 17:00 (월~금)", "구분": "특정인 이용가능" }, "geometry": { "type": "Point", "coordinates": [ 127.496158034089902, 36.607438588810957 ] } },
{ "type": "Feature", "properties": { "fid": 1929, "시설명": "주공7경로당", "시설유형": "특정계층이용시설-회원이용시설", "주소": "충청북도 청주시 서원구 분평로 18", "시간": "13:00 ~ 17:00 (월~금)", "구분": "특정인 이용가능" }, "geometry": { "type": "Point", "coordinates": [ 127.486921246403426, 36.607537733550359 ] } },
{ "type": "Feature", "properties": { "fid": 1983, "시설명": "분평동행정복지센터", "시설유형": "공공시설-공공청사", "주소": "충청북도 청주시 서원구 분평동 분평로 35 , 분평동주민센터 (분평동)", "시간": "기본 : 09:00 ~ 18:00 (월,화,수,목,금)", "구분": "누구나 이용가능" }, "geometry": { "type": "Point", "coordinates": [ 127.488906662969583, 36.608738644356372 ] } },
{ "type": "Feature", "properties": { "fid": 1939, "시설명": "분평동행정복지센터", "시설유형": "공공시설-공공청사", "주소": "충청북도 청주시 서원구 분평동 분평로 35", "시간": "09:00 ~ 18:00 (월~금)", "구분": "누구나 이용가능" }, "geometry": { "type": "Point", "coordinates": [ 127.488906662969583, 36.608738644356372 ] } },
{ "type": "Feature", "properties": { "fid": 1988, "시설명": "원마루경로당", "시설유형": "특정계층이용시설-회원이용시설", "주소": "충청북도 청주시 서원구 원마루로10번길 1-3 (분평동)", "시간": "기본 : 13:00 ~ 17:00 (월,화,수,목,금)", "구분": "특정인 이용가능" }, "geometry": { "type": "Point", "coordinates": [ 127.495471565380853, 36.6094329750469 ] } },
{ "type": "Feature", "properties": { "fid": 1944, "시설명": "원마루경로당", "시설유형": "특정계층이용시설-회원이용시설", "주소": "충청북도 청주시 서원구 원마루로10번길 1-3", "시간": "13:00 ~ 17:00 (월~금)", "구분": "특정인 이용가능" }, "geometry": { "type": "Point", "coordinates": [ 127.495471565380853, 36.6094329750469 ] } },
{ "type": "Feature", "properties": { "fid": 1990, "시설명": "현대대우경로당", "시설유형": "특정계층이용시설-회원이용시설", "주소": "충청북도 청주시 서원구 월평로 24 (현대대우아파트 관리사무소)", "시간": "기본 : 13:00 ~ 17:00 (월,화,수,목,금)", "구분": "특정인 이용가능" }, "geometry": { "type": "Point", "coordinates": [ 127.487244181835308, 36.609562391372016 ] } },
{ "type": "Feature", "properties": { "fid": 1946, "시설명": "현대대우경로당", "시설유형": "특정계층이용시설-회원이용시설", "주소": "충청북도 청주시 서원구 월평로 24", "시간": "13:00 ~ 17:00 (월~금)", "구분": "특정인 이용가능" }, "geometry": { "type": "Point", "coordinates": [ 127.487244181835308, 36.609562391372016 ] } },
{ "type": "Feature", "properties": { "fid": 1932, "시설명": "주공4-2경로당", "시설유형": "특정계층이용시설-회원이용시설", "주소": "충청북도 청주시 서원구 1순환로1137번길 80", "시간": "13:00 ~ 17:00 (월~금)", "구분": "특정인 이용가능" }, "geometry": { "type": "Point", "coordinates": [ 127.494208055953365, 36.609898935613309 ] } },
{ "type": "Feature", "properties": { "fid": 1980, "시설명": "주공4-1경로당", "시설유형": "특정계층이용시설-회원이용시설", "주소": "충청북도 청주시 서원구 1순환로1137번길 80 (분평동, 분평주공4단지아파트)", "시간": "기본 : 13:00 ~ 17:00 (월,화,수,목,금)", "구분": "특정인 이용가능" }, "geometry": { "type": "Point", "coordinates": [ 127.494208055953365, 36.609898935613309 ] } },
{ "type": "Feature", "properties": { "fid": 1976, "시설명": "주공4-2경로당", "시설유형": "특정계층이용시설-회원이용시설", "주소": "충청북도 청주시 서원구 1순환로1137번길 80 (분평동, 분평주공4단지아파트)", "시간": "기본 : 13:00 ~ 17:00 (월,화,수,목,금)", "구분": "특정인 이용가능" }, "geometry": { "type": "Point", "coordinates": [ 127.494208055953365, 36.609898935613309 ] } },
{ "type": "Feature", "properties": { "fid": 1936, "시설명": "주공4-1경로당", "시설유형": "특정계층이용시설-회원이용시설", "주소": "충청북도 청주시 서원구 1순환로1137번길 80", "시간": "13:00 ~ 17:00 (월~금)", "구분": "특정인 이용가능" }, "geometry": { "type": "Point", "coordinates": [ 127.494208055953365, 36.609898935613309 ] } },
{ "type": "Feature", "properties": { "fid": 1934, "시설명": "주은경로당", "시설유형": "특정계층이용시설-회원이용시설", "주소": "충청북도 청주시 서원구 1순환로1137번길 79", "시간": "13:00 ~ 17:00 (월~금)", "구분": "특정인 이용가능" }, "geometry": { "type": "Point", "coordinates": [ 127.491481952589211, 36.609917871719986 ] } },
{ "type": "Feature", "properties": { "fid": 1982, "시설명": "대원경로당", "시설유형": "특정계층이용시설-회원이용시설", "주소": "충청북도 청주시 서원구 분평로 49 (대원아파트)", "시간": "기본 : 13:00 ~ 17:00 (월,화,수,목,금)", "구분": "특정인 이용가능" }, "geometry": { "type": "Point", "coordinates": [ 127.491481952589211, 36.609917871719986 ] } },
{ "type": "Feature", "properties": { "fid": 1978, "시설명": "주은경로당", "시설유형": "특정계층이용시설-회원이용시설", "주소": "충청북도 청주시 서원구 1순환로1137번길 79 (주은프레지던트아파트 관리사무소)", "시간": "기본 : 13:00 ~ 17:00 (월,화,수,목,금)", "구분": "특정인 이용가능" }, "geometry": { "type": "Point", "coordinates": [ 127.491481952589211, 36.609917871719986 ] } },
{ "type": "Feature", "properties": { "fid": 1938, "시설명": "대원경로당", "시설유형": "특정계층이용시설-회원이용시설", "주소": "충청북도 청주시 서원구 분평로 49", "시간": "13:00 ~ 17:00 (월~금)", "구분": "특정인 이용가능" }, "geometry": { "type": "Point", "coordinates": [ 127.491481952589211, 36.609917871719986 ] } },
{ "type": "Feature", "properties": { "fid": 1935, "시설명": "주공1경로당", "시설유형": "특정계층이용시설-회원이용시설", "주소": "충청북도 청주시 서원구 월평로 25", "시간": "13:00 ~ 17:00 (월~금)", "구분": "특정인 이용가능" }, "geometry": { "type": "Point", "coordinates": [ 127.487243997736442, 36.611939268206285 ] } },
{ "type": "Feature", "properties": { "fid": 1979, "시설명": "주공1경로당", "시설유형": "특정계층이용시설-회원이용시설", "주소": "충청북도 청주시 서원구 월평로 25 (분평동, 청주분평1단지 뜨란채아파트)", "시간": "기본 : 13:00 ~ 17:00 (월,화,수,목,금)", "구분": "특정인 이용가능" }, "geometry": { "type": "Point", "coordinates": [ 127.487243997736442, 36.611939268206285 ] } },
{ "type": "Feature", "properties": { "fid": 1981, "시설명": "주공3-2경로당", "시설유형": "특정계층이용시설-회원이용시설", "주소": "충청북도 청주시 서원구 1순환로1137번길 130 , 주공3-2경로당 (분평동)", "시간": "기본 : 13:00 ~ 17:00 (월,화,수,목,금)", "구분": "특정인 이용가능" }, "geometry": { "type": "Point", "coordinates": [ 127.493015847730078, 36.612058926401765 ] } },
{ "type": "Feature", "properties": { "fid": 1977, "시설명": "주공3-1경로당", "시설유형": "특정계층이용시설-회원이용시설", "주소": "충청북도 청주시 서원구 1순환로1137번길 130 , 주공3-1경로당 (분평동)", "시간": "기본 : 13:00 ~ 17:00 (월,화,수,목,금)", "구분": "특정인 이용가능" }, "geometry": { "type": "Point", "coordinates": [ 127.493015847730078, 36.612058926401765 ] } },
{ "type": "Feature", "properties": { "fid": 1928, "시설명": "주공2경로당", "시설유형": "특정계층이용시설-회원이용시설", "주소": "충청북도 청주시 서원구 1순환로1137번길 129", "시간": "13:00 ~ 17:00 (월~금)", "구분": "특정인 이용가능" }, "geometry": { "type": "Point", "coordinates": [ 127.491325665529729, 36.612206585759708 ] } },
{ "type": "Feature", "properties": { "fid": 1937, "시설명": "주공3-2경로당", "시설유형": "특정계층이용시설-회원이용시설", "주소": "충청북도 청주시 서원구 1순환로1137번길 130", "시간": "13:00 ~ 17:00 (월~금)", "구분": "특정인 이용가능" }, "geometry": { "type": "Point", "coordinates": [ 127.494845939869919, 36.612833177065937 ] } },
{ "type": "Feature", "properties": { "fid": 1933, "시설명": "주공3-1경로당", "시설유형": "특정계층이용시설-회원이용시설", "주소": "충청북도 청주시 서원구 1순환로1137번길 130", "시간": "13:00 ~ 17:00 (월~금)", "구분": "특정인 이용가능" }, "geometry": { "type": "Point", "coordinates": [ 127.494845939869919, 36.612833177065937 ] } },
{ "type": "Feature", "properties": { "fid": 1947, "시설명": "만복경로당", "시설유형": "특정계층이용시설-회원이용시설", "주소": "충청북도 청주시 서원구 수영로8번길 36", "시간": "13:00 ~ 18:00 (월~금)", "구분": "특정인 이용가능" }, "geometry": { "type": "Point", "coordinates": [ 127.486259674827039, 36.613369683118151 ] } },
{ "type": "Feature", "properties": { "fid": 1991, "시설명": "만복경로당", "시설유형": "특정계층이용시설-회원이용시설", "주소": "충청북도 청주시 서원구 수영로8번길 36 (수곡동)", "시간": "기본 : 13:00 ~ 17:00 (월,화,수,목,금) / 연장 : 17:00 ~ 18:00", "구분": "특정인 이용가능" }, "geometry": { "type": "Point", "coordinates": [ 127.486259674827039, 36.613369683118151 ] } },
{ "type": "Feature", "properties": { "fid": 1780, "시설명": "생이경로당", "시설유형": "특정계층이용시설-회원이용시설", "주소": "충청북도 청주시 상당구 수영로101번길 21-4 (영운동)", "시간": "09:00 ~ 17:00 (월~금)", "구분": "특정인 이용가능" }, "geometry": { "type": "Point", "coordinates": [ 127.496263579290087, 36.616789902272366 ] } },
{ "type": "Feature", "properties": { "fid": 1949, "시설명": "남들경로당", "시설유형": "특정계층이용시설-회원이용시설", "주소": "충청북도 청주시 서원구 청남로2074번길 101", "시간": "13:00 ~ 18:00 (월~금)", "구분": "특정인 이용가능" }, "geometry": { "type": "Point", "coordinates": [ 127.492271703870145, 36.617664221037323 ] } },
{ "type": "Feature", "properties": { "fid": 1993, "시설명": "남들경로당", "시설유형": "특정계층이용시설-회원이용시설", "주소": "충청북도 청주시 서원구 청남로2074번길 101 , 남들경로당 (수곡동)", "시간": "기본 : 13:00 ~ 17:00 (월,화,수,목,금) / 연장 : 17:00 ~ 18:00", "구분": "특정인 이용가능" }, "geometry": { "type": "Point", "coordinates": [ 127.492271703870145, 36.617664221037323 ] } },
{ "type": "Feature", "properties": { "fid": 1948, "시설명": "수곡경로당", "시설유형": "특정계층이용시설-회원이용시설", "주소": "충청북도 청주시 서원구 서원남로19번길 41", "시간": "13:00 ~ 18:00 (월~금)", "구분": "특정인 이용가능" }, "geometry": { "type": "Point", "coordinates": [ 127.484728061942221, 36.620566924345646 ] } },
{ "type": "Feature", "properties": { "fid": 1992, "시설명": "수곡경로당", "시설유형": "특정계층이용시설-회원이용시설", "주소": "충청북도 청주시 서원구 서원남로19번길 41 , 수곡경로당 (수곡동)", "시간": "기본 : 13:00 ~ 17:00 (월,화,수,목,금) / 연장 : 17:00 ~ 18:00", "구분": "특정인 이용가능" }, "geometry": { "type": "Point", "coordinates": [ 127.484728061942221, 36.620566924345646 ] } },
{ "type": "Feature", "properties": { "fid": 1781, "시설명": "신라송림경로당", "시설유형": "특정계층이용시설-회원이용시설", "주소": "충청북도 청주시 상당구 단재로77번길 21-22 (영운동)", "시간": "13:00 ~ 17:00 (월~금)", "구분": "특정인 이용가능" }, "geometry": { "type": "Point", "coordinates": [ 127.497064897906085, 36.62222097103173 ] } },
{ "type": "Feature", "properties": { "fid": 1903, "시설명": "남부경로당", "시설유형": "특정계층이용시설-회원이용시설", "주소": "충청북도 청주시 서원구 남들로 74", "시간": "13:00 ~ 17:00 (월~일)", "구분": "특정인 이용가능" }, "geometry": { "type": "Point", "coordinates": [ 127.486738650430567, 36.62421105623622 ] } },
{ "type": "Feature", "properties": { "fid": 1766, "시설명": "석교동경로당", "시설유형": "특정계층이용시설-회원이용시설", "주소": "충청북도 청주시 상당구 대성로21번길 10-1", "시간": "09:00 ~ 18:00 (월~일)", "구분": "특정인 이용가능" }, "geometry": { "type": "Point", "coordinates": [ 127.492674438408415, 36.627283881062006 ] } },
{ "type": "Feature", "properties": { "fid": 1771, "시설명": "남문로1가경로당", "시설유형": "특정계층이용시설-회원이용시설", "주소": "충청북도 청주시 상당구 상당로25번길 21-2", "시간": "09:00 ~ 18:00 (월~일)", "구분": "특정인 이용가능" }, "geometry": { "type": "Point", "coordinates": [ 127.489841202712569, 36.630018020279216 ] } },
{ "type": "Feature", "properties": { "fid": 1769, "시설명": "서운동경로당", "시설유형": "특정계층이용시설-회원이용시설", "주소": "충청북도 청주시 상당구 상당로26번길 21 (서운동)", "시간": "09:00 ~ 18:00 (월~일)", "구분": "특정인 이용가능" }, "geometry": { "type": "Point", "coordinates": [ 127.492394244004458, 36.630745958568589 ] } },
{ "type": "Feature", "properties": { "fid": 1767, "시설명": "남주동경로당", "시설유형": "특정계층이용시설-회원이용시설", "주소": "충청북도 청주시 상당구 무심동로336번길 13", "시간": "09:00 ~ 18:00 (월~일)", "구분": "특정인 이용가능" }, "geometry": { "type": "Point", "coordinates": [ 127.483633255330631, 36.631150399253492 ] } },
{ "type": "Feature", "properties": { "fid": 1773, "시설명": "성안동행정복지센터", "시설유형": "공공시설-공공청사", "주소": "충청북도 청주시 상당구 대성로 72", "시간": "09:00 ~ 18:00 (월~일)", "구분": "누구나 이용가능" }, "geometry": { "type": "Point", "coordinates": [ 127.493245022134843, 36.631758041143506 ] } },
{ "type": "Feature", "properties": { "fid": 1768, "시설명": "서문동경로당", "시설유형": "특정계층이용시설-회원이용시설", "주소": "충청북도 청주시 상당구 남사로93번길 27-5", "시간": "09:00 ~ 18:00 (월~일)", "구분": "특정인 이용가능" }, "geometry": { "type": "Point", "coordinates": [ 127.485682184262899, 36.633069999520572 ] } },
{ "type": "Feature", "properties": { "fid": 1774, "시설명": "탑대성동행정복지센터", "시설유형": "공공시설-공공청사", "주소": "충청북도 청주시 상당구 당산로 9 (대성동)", "시간": "09:00 ~ 18:00 (평일) / 10:00 ~ 18:00 (주말)", "구분": "누구나 이용가능" }, "geometry": { "type": "Point", "coordinates": [ 127.496781219346502, 36.633175012909248 ] } },
{ "type": "Feature", "properties": { "fid": 1770, "시설명": "문화동경로당", "시설유형": "특정계층이용시설-회원이용시설", "주소": "충청북도 청주시 상당구 용담로31번길 21 (문화동)", "시간": "09:00 ~ 18:00 (월~일)", "구분": "특정인 이용가능" }, "geometry": { "type": "Point", "coordinates": [ 127.493758619370212, 36.633331722898781 ] } },
{ "type": "Feature", "properties": { "fid": 1778, "시설명": "대성경로당", "시설유형": "특정계층이용시설-회원이용시설", "주소": "충청북도 청주시 상당구 당고개로 25-13 (대성동)", "시간": "13:00 ~ 17:00 (월~금)", "구분": "특정인 이용가능" }, "geometry": { "type": "Point", "coordinates": [ 127.496726293667479, 36.635297887644377 ] } },
{ "type": "Feature", "properties": { "fid": 1772, "시설명": "충청북도도청동관옥상", "시설유형": "야외시설-정자·파고라 등", "주소": "충청북도 청주시 상당구 상당로 82 (문화동)", "시간": "18:00 ~ 09:00 (월~금)", "구분": "누구나 이용가능" }, "geometry": { "type": "Point", "coordinates": [ 127.491445718775921, 36.635428242729162 ] } },
{ "type": "Feature", "properties": { "fid": 1760, "시설명": "남부경로당", "시설유형": "특정계층이용시설-회원이용시설", "주소": "충청북도 청주시 상당구 교동로 39 (수동)", "시간": "13:00 ~ 17:00 (월~금)", "구분": "특정인 이용가능" }, "geometry": { "type": "Point", "coordinates": [ 127.494400467351142, 36.637523728534639 ] } },
{ "type": "Feature", "properties": { "fid": 1765, "시설명": "중앙동행정복지센터", "시설유형": "공공시설-공공청사", "주소": "충청북도 청주시 상당구 교서로32번길 31", "시간": "09:00 ~ 18:00 (평일) / 10:00 ~ 18:00 (주말)", "구분": "누구나 이용가능" }, "geometry": { "type": "Point", "coordinates": [ 127.488191157939767, 36.639853634772038 ] } },
{ "type": "Feature", "properties": { "fid": 1764, "시설명": "청주시노인종합복지관", "시설유형": "특정계층이용시설-회원이용시설", "주소": "충청북도 청주시 상당구 대성로172번길 21 (수동)", "시간": "09:00 ~ 18:00 (월~금)", "구분": "특정인 이용가능" }, "geometry": { "type": "Point", "coordinates": [ 127.492973941387476, 36.641043645045073 ] } },
{ "type": "Feature", "properties": { "fid": 1761, "시설명": "중부경로당", "시설유형": "특정계층이용시설-회원이용시설", "주소": "충청북도 청주시 상당구 대성로180번길 40 (수동)", "시간": "13:00 ~ 17:00 (월~금)", "구분": "특정인 이용가능" }, "geometry": { "type": "Point", "coordinates": [ 127.494111224639369, 36.641774892689455 ] } },
{ "type": "Feature", "properties": { "fid": 1759, "시설명": "영동경로당", "시설유형": "특정계층이용시설-회원이용시설", "주소": "충청북도 청주시 상당구 중앙로61번길 39-8", "시간": "13:00 ~ 17:00 (월~금)", "구분": "특정인 이용가능" }, "geometry": { "type": "Point", "coordinates": [ 127.48619377425544, 36.642014388279065 ] } },
{ "type": "Feature", "properties": { "fid": 1762, "시설명": "북부경로당", "시설유형": "특정계층이용시설-회원이용시설", "주소": "충청북도 청주시 상당구 수동로 84-1 (수동)", "시간": "13:00 ~ 17:00 (월~금)", "구분": "특정인 이용가능" }, "geometry": { "type": "Point", "coordinates": [ 127.493024818630744, 36.643823835919179 ] } },
{ "type": "Feature", "properties": { "fid": 2221, "시설명": "세원아파트경로당", "시설유형": "특정계층이용시설-회원이용시설", "주소": "충청북도 청주시 청원구 사북로149번길 7", "시간": "기본 : 13:00 ~ 17:00 (월~금)", "구분": "특정인 이용가능" }, "geometry": { "type": "Point", "coordinates": [ 127.487029756312964, 36.645727881707401 ] } },
{ "type": "Feature", "properties": { "fid": 1763, "시설명": "수암경로당", "시설유형": "특정계층이용시설-회원이용시설", "주소": "충청북도 청주시 상당구 수암로54번길 13-1 (수동)", "시간": "13:00 ~ 17:00 (월~금)", "구분": "특정인 이용가능" }, "geometry": { "type": "Point", "coordinates": [ 127.494983793001452, 36.646954232636162 ] } },
{ "type": "Feature", "properties": { "fid": 2216, "시설명": "우암경로당", "시설유형": "특정계층이용시설-회원이용시설", "주소": "충청북도 청주시 청원구 직지대로848번길 42", "시간": "기본 : 13:00 ~ 17:00 (월~금)", "구분": "특정인 이용가능" }, "geometry": { "type": "Point", "coordinates": [ 127.485804239571706, 36.647584591896248 ] } },
{ "type": "Feature", "properties": { "fid": 2049, "시설명": "입상2리경로당", "시설유형": "특정계층이용시설-회원이용시설", "주소": "충청북도 청주시 청원구 내수읍 입상2길 22", "시간": "13:00 ~ 17:00 (월-일)", "구분": "특정인 이용가능" }, "geometry": { "type": "Point", "coordinates": [ 127.494589069816271, 36.72864200301224 ] } },
{ "type": "Feature", "properties": { "fid": 2047, "시설명": "청원농원경로당", "시설유형": "특정계층이용시설-회원이용시설", "주소": "충청북도 청주시 청원구 내수읍 원통숲안길 63", "시간": "13:00 ~ 17:00 (월-일)", "구분": "특정인 이용가능" }, "geometry": { "type": "Point", "coordinates": [ 127.498757127625211, 36.69230537754725 ] } },
{ "type": "Feature", "properties": { "fid": 2046, "시설명": "원통2리경로당", "시설유형": "특정계층이용시설-회원이용시설", "주소": "충청북도 청주시 청원구 내수읍원통숲안1길 78-15", "시간": "13:00 ~ 17:00 (월-일)", "구분": "특정인 이용가능" }, "geometry": { "type": "Point", "coordinates": [ 127.501331991788703, 36.702281647048117 ] } },
{ "type": "Feature", "properties": { "fid": 2033, "시설명": "구성1리경로당", "시설유형": "특정계층이용시설-회원이용시설", "주소": "충청북도 청주시 청원구 내수읍 구성길 43", "시간": "13:00 ~ 17:00 (월-일)", "구분": "특정인 이용가능" }, "geometry": { "type": "Point", "coordinates": [ 127.508028653029953, 36.68094733167532 ] } },
{ "type": "Feature", "properties": { "fid": 2034, "시설명": "구성3리경로당", "시설유형": "특정계층이용시설-회원이용시설", "주소": "충청북도 청주시 청원구 내수읍 구성새동네길 79-6", "시간": "13:00 ~ 17:00 (월-일)", "구분": "특정인 이용가능" }, "geometry": { "type": "Point", "coordinates": [ 127.511417562965875, 36.690332722663115 ] } },
{ "type": "Feature", "properties": { "fid": 2035, "시설명": "구성2리경로당", "시설유형": "특정계층이용시설-회원이용시설", "주소": "충청북도 청주시 청원구 내수읍 구성신화동길 88", "시간": "13:00 ~ 17:00 (월-일)", "구분": "특정인 이용가능" }, "geometry": { "type": "Point", "coordinates": [ 127.514360494435209, 36.695260918311931 ] } },
{ "type": "Feature", "properties": { "fid": 2045, "시설명": "원통1리경로당", "시설유형": "특정계층이용시설-회원이용시설", "주소": "충청북도 청주시 청원구 내수읍 원통길 13-2", "시간": "13:00 ~ 17:00 (월-일)", "구분": "특정인 이용가능" }, "geometry": { "type": "Point", "coordinates": [ 127.518257085137506, 36.714491799281106 ] } },
{ "type": "Feature", "properties": { "fid": 2037, "시설명": "묵방1리경로당", "시설유형": "특정계층이용시설-회원이용시설", "주소": "충청북도 청주시 청원구 내수읍 묵방길 39-3", "시간": "13:00 ~ 17:00 (월-일)", "구분": "특정인 이용가능" }, "geometry": { "type": "Point", "coordinates": [ 127.521828051598604, 36.689392862450035 ] } },
{ "type": "Feature", "properties": { "fid": 2043, "시설명": "은곡4리경로당", "시설유형": "특정계층이용시설-회원이용시설", "주소": "충청북도 청주시 청원구 내수읍은곡묵방길 28", "시간": "13:00 ~ 17:00 (월-일)", "구분": "특정인 이용가능" }, "geometry": { "type": "Point", "coordinates": [ 127.524931816608401, 36.709135404114306 ] } },
{ "type": "Feature", "properties": { "fid": 2041, "시설명": "은곡5리경로당", "시설유형": "특정계층이용시설-회원이용시설", "주소": "충청북도 청주시 청원구 내수읍 은곡묵방길 52-10", "시간": "13:00 ~ 17:00 (월-일)", "구분": "특정인 이용가능" }, "geometry": { "type": "Point", "coordinates": [ 127.525311274286622, 36.710479347282657 ] } },
{ "type": "Feature", "properties": { "fid": 2036, "시설명": "국동리경로당", "시설유형": "특정계층이용시설-회원이용시설", "주소": "충청북도 청주시 청원구 내수읍국동길 79", "시간": "13:00 ~ 17:00 (월-일)", "구분": "특정인 이용가능" }, "geometry": { "type": "Point", "coordinates": [ 127.525967978732538, 36.679109646308497 ] } },
{ "type": "Feature", "properties": { "fid": 2053, "시설명": "내수2리경로당", "시설유형": "특정계층이용시설-회원이용시설", "주소": "충청북도 청주시 청원구 내수읍 내수신안길 36-3", "시간": "13:00 ~ 17:00 (월-일)", "구분": "특정인 이용가능" }, "geometry": { "type": "Point", "coordinates": [ 127.526119820977073, 36.721001458328686 ] } },
{ "type": "Feature", "properties": { "fid": 2055, "시설명": "내수3리경로당", "시설유형": "특정계층이용시설-회원이용시설", "주소": "충청북도 청주시 청원구 내수읍 내수3길 22-2", "시간": "13:00 ~ 17:00 (월-일)", "구분": "특정인 이용가능" }, "geometry": { "type": "Point", "coordinates": [ 127.52681132440074, 36.722659834672335 ] } },
{ "type": "Feature", "properties": { "fid": 2040, "시설명": "은곡3리경로당", "시설유형": "특정계층이용시설-회원이용시설", "주소": "충청북도 청주시 청원구 내수읍 은곡3길 11", "시간": "13:00 ~ 17:00 (월-일)", "구분": "특정인 이용가능" }, "geometry": { "type": "Point", "coordinates": [ 127.527842455865141, 36.716864408655155 ] } },
{ "type": "Feature", "properties": { "fid": 2038, "시설명": "묵방2리경로당", "시설유형": "특정계층이용시설-회원이용시설", "주소": "충청북도 청주시 청원구 내수읍 묵방2길 82", "시간": "13:00 ~ 17:00 (월-일)", "구분": "특정인 이용가능" }, "geometry": { "type": "Point", "coordinates": [ 127.528097278489781, 36.689897986421578 ] } },
{ "type": "Feature", "properties": { "fid": 2025, "시설명": "내수45리경로당", "시설유형": "특정계층이용시설-회원이용시설", "주소": "충청북도 청주시 청원구 내수읍 내수로 635", "시간": "13:00 ~ 17:00 (월-일)", "구분": "특정인 이용가능" }, "geometry": { "type": "Point", "coordinates": [ 127.529264816644741, 36.720856384873521 ] } },
{ "type": "Feature", "properties": { "fid": 2042, "시설명": "은곡6리경로당", "시설유형": "특정계층이용시설-회원이용시설", "주소": "충청북도 청주시 청원구 내수읍은곡4길 6", "시간": "13:00 ~ 17:00 (월-일)", "구분": "특정인 이용가능" }, "geometry": { "type": "Point", "coordinates": [ 127.529362783323933, 36.717813808109533 ] } },
{ "type": "Feature", "properties": { "fid": 2044, "시설명": "은곡1리경로당", "시설유형": "특정계층이용시설-회원이용시설", "주소": "충청북도 청주시 청원구 내수읍 은곡1길 20", "시간": "13:00 ~ 17:00 (월-일)", "구분": "특정인 이용가능" }, "geometry": { "type": "Point", "coordinates": [ 127.529600914689993, 36.699018204399067 ] } },
{ "type": "Feature", "properties": { "fid": 2039, "시설명": "은곡2리경로당", "시설유형": "특정계층이용시설-회원이용시설", "주소": "충청북도 청주시 청원구 내수읍 은곡길 102", "시간": "13:00 ~ 17:00 (월-일)", "구분": "특정인 이용가능" }, "geometry": { "type": "Point", "coordinates": [ 127.530186819573572, 36.704138704247505 ] } },
{ "type": "Feature", "properties": { "fid": 2057, "시설명": "마산7리경로당", "시설유형": "특정계층이용시설-회원이용시설", "주소": "충청북도 청주시 청원구 내수읍 청암로 35", "시간": "13:00 ~ 17:00 (월-일)", "구분": "특정인 이용가능" }, "geometry": { "type": "Point", "coordinates": [ 127.534202277943635, 36.723534406164909 ] } },
{ "type": "Feature", "properties": { "fid": 2054, "시설명": "내수1리경로당", "시설유형": "특정계층이용시설-회원이용시설", "주소": "충청북도 청주시 청원구 내수읍 내수본길 22", "시간": "13:00 ~ 17:00 (월-일)", "구분": "특정인 이용가능" }, "geometry": { "type": "Point", "coordinates": [ 127.534939206471094, 36.727953379544836 ] } },
{ "type": "Feature", "properties": { "fid": 2059, "시설명": "내수읍주민자치센터", "시설유형": "공공시설-공공청사", "주소": "충청북도 청주시 청원구 내수읍 마산리 149-3", "시간": "09:00 ~ 18:00 (월-일)", "구분": "누구나 이용가능" }, "geometry": { "type": "Point", "coordinates": [ 127.535013368239518, 36.723559762672728 ] } },
{ "type": "Feature", "properties": { "fid": 2056, "시설명": "내수6리경로당", "시설유형": "특정계층이용시설-회원이용시설", "주소": "충청북도 청주시 청원구 내수읍 내수본길 12", "시간": "13:00 ~ 17:00 (월-일)", "구분": "특정인 이용가능" }, "geometry": { "type": "Point", "coordinates": [ 127.535111127778137, 36.727074249478932 ] } },
{ "type": "Feature", "properties": { "fid": 2063, "시설명": "마산5리경로당", "시설유형": "특정계층이용시설-회원이용시설", "주소": "충청북도 청주시 청원구 내수읍 마산길 72", "시간": "13:00 ~ 17:00 (월-일)", "구분": "특정인 이용가능" }, "geometry": { "type": "Point", "coordinates": [ 127.535489553894365, 36.72165162337798 ] } },
{ "type": "Feature", "properties": { "fid": 2058, "시설명": "내수보건지소", "시설유형": "공공시설-공공청사", "주소": "충청북도 청주시 청원구 내수읍 마산3길 49", "시간": "09:00 ~ 18:00 (월-일)", "구분": "누구나 이용가능" }, "geometry": { "type": "Point", "coordinates": [ 127.535518609473968, 36.723818552797894 ] } },
{ "type": "Feature", "properties": { "fid": 2060, "시설명": "내수읍행정복지센터", "시설유형": "공공시설-공공청사", "주소": "충청북도 청주시 청원구 내수읍 마산3길 49", "시간": "09:00 ~ 18:00 (월-일)", "구분": "누구나 이용가능" }, "geometry": { "type": "Point", "coordinates": [ 127.535518609473968, 36.723818552797894 ] } },
{ "type": "Feature", "properties": { "fid": 2066, "시설명": "내수읍분회경로당", "시설유형": "특정계층이용시설-회원이용시설", "주소": "충청북도 청주시 청원구 내수읍 마산3길 49", "시간": "13:00 ~ 17:00 (월-일)", "구분": "특정인 이용가능" }, "geometry": { "type": "Point", "coordinates": [ 127.535518609473968, 36.723818552797894 ] } },
{ "type": "Feature", "properties": { "fid": 2064, "시설명": "마산2리경로당", "시설유형": "특정계층이용시설-회원이용시설", "주소": "충청북도 청주시 청원구 내수읍 마산리 94-15", "시간": "13:00 ~ 17:00 (월-일)", "구분": "특정인 이용가능" }, "geometry": { "type": "Point", "coordinates": [ 127.536895132662323, 36.720131410843941 ] } },
{ "type": "Feature", "properties": { "fid": 2050, "시설명": "학평1리경로당", "시설유형": "특정계층이용시설-회원이용시설", "주소": "충청북도 청주시 청원구 내수읍 내수학평길 45", "시간": "13:00 ~ 17:00 (월-일)", "구분": "특정인 이용가능" }, "geometry": { "type": "Point", "coordinates": [ 127.537974662335785, 36.727529894318501 ] } },
{ "type": "Feature", "properties": { "fid": 2062, "시설명": "마산1리경로당", "시설유형": "특정계층이용시설-회원이용시설", "주소": "충청북도 청주시 청원구 내수읍 마산1길 100", "시간": "13:00 ~ 17:00 (월-일)", "구분": "특정인 이용가능" }, "geometry": { "type": "Point", "coordinates": [ 127.537997254033542, 36.725441306269261 ] } },
{ "type": "Feature", "properties": { "fid": 2065, "시설명": "마산6리경로당", "시설유형": "특정계층이용시설-회원이용시설", "주소": "충청북도 청주시 청원구 내수읍 마산3길 3", "시간": "13:00 ~ 17:00 (월-일)", "구분": "특정인 이용가능" }, "geometry": { "type": "Point", "coordinates": [ 127.538476511472282, 36.720812000425937 ] } },
{ "type": "Feature", "properties": { "fid": 2061, "시설명": "마산3리경로당", "시설유형": "특정계층이용시설-회원이용시설", "주소": "충청북도 청주시 청원구 내수읍 마산3길 4-33", "시간": "13:00 ~ 17:00 (월-일)", "구분": "특정인 이용가능" }, "geometry": { "type": "Point", "coordinates": [ 127.538811405805049, 36.72153388479321 ] } },
{ "type": "Feature", "properties": { "fid": 2068, "시설명": "풍정1리경로당", "시설유형": "특정계층이용시설-회원이용시설", "주소": "충청북도 청주시 청원구 내수읍 풍정길 36-5", "시간": "13:00 ~ 17:00 (월-일)", "구분": "특정인 이용가능" }, "geometry": { "type": "Point", "coordinates": [ 127.544914513785855, 36.700749030241802 ] } },
{ "type": "Feature", "properties": { "fid": 2067, "시설명": "풍정2리경로당", "시설유형": "특정계층이용시설-회원이용시설", "주소": "충청북도 청주시 청원구 내수읍 풍정2길 48-8", "시간": "13:00 ~ 17:00 (월-일)", "구분": "특정인 이용가능" }, "geometry": { "type": "Point", "coordinates": [ 127.553928195575935, 36.710479580546242 ] } },
{ "type": "Feature", "properties": { "fid": 1589, "시설명": "삼산1경로당", "시설유형": "특정계층이용시설-회원이용시설", "주소": "충청북도 청주시 상당구 낭성면현암삼산로 304", "시간": "기본 : 13:00 ~ 17:00 (월,화,수,목,금,토,일)", "구분": "특정인 이용가능" }, "geometry": { "type": "Point", "coordinates": [ 127.564958758428602, 36.666500754603916 ] } },
{ "type": "Feature", "properties": { "fid": 2069, "시설명": "덕암1리경로당", "시설유형": "특정계층이용시설-회원이용시설", "주소": "충청북도 청주시 청원구 내수읍 덕암1길 5", "시간": "13:00 ~ 17:00 (월-일)", "구분": "특정인 이용가능" }, "geometry": { "type": "Point", "coordinates": [ 127.543772192605985, 36.699508581718895 ] } },
{ "type": "Feature", "properties": { "fid": 2070, "시설명": "덕암2리경로당", "시설유형": "특정계층이용시설-회원이용시설", "주소": "충청북도 청주시 청원구 내수읍 덕암2길 38", "시간": "13:00 ~ 17:00 (월-일)", "구분": "특정인 이용가능" }, "geometry": { "type": "Point", "coordinates": [ 127.553264257779745, 36.692017799565029 ] } },
{ "type": "Feature", "properties": { "fid": 2071, "시설명": "도원1리경로당", "시설유형": "특정계층이용시설-회원이용시설", "주소": "충청북도 청주시 청원구 내수읍 내수도원길 17", "시간": "13:00 ~ 17:00 (월-일)", "구분": "특정인 이용가능" }, "geometry": { "type": "Point", "coordinates": [ 127.536441467479335, 36.711938546980832 ] } },
{ "type": "Feature", "properties": { "fid": 2072, "시설명": "도원3리경로당", "시설유형": "특정계층이용시설-회원이용시설", "주소": "충청북도 청주시 청원구 내수읍 도원세교로 63", "시간": "13:00 ~ 17:00 (월-일)", "구분": "특정인 이용가능" }, "geometry": { "type": "Point", "coordinates": [ 127.540585182668721, 36.70965450534991 ] } },
{ "type": "Feature", "properties": { "fid": 2073, "시설명": "도원2리경로당", "시설유형": "특정계층이용시설-회원이용시설", "주소": "충청북도 청주시 청원구 내수읍 도원세교로 67", "시간": "13:00 ~ 17:00 (월-일)", "구분": "특정인 이용가능" }, "geometry": { "type": "Point", "coordinates": [ 127.539682072904768, 36.709277013660149 ] } },
{ "type": "Feature", "properties": { "fid": 2074, "시설명": "도원4리경로당", "시설유형": "특정계층이용시설-회원이용시설", "주소": "충청북도 청주시 청원구 내수읍도원세교로 85", "시간": "13:00 ~ 17:00 (월-일)", "구분": "특정인 이용가능" }, "geometry": { "type": "Point", "coordinates": [ 127.540470058792181, 36.707759946539177 ] } },
{ "type": "Feature", "properties": { "fid": 2075, "시설명": "형동2리경로당", "시설유형": "특정계층이용시설-회원이용시설", "주소": "충청북도 청주시 청원구 내수읍 형동2길 90", "시간": "13:00 ~ 17:00 (월-일)", "구분": "특정인 이용가능" }, "geometry": { "type": "Point", "coordinates": [ 127.563102798343834, 36.692784393119339 ] } },
{ "type": "Feature", "properties": { "fid": 2078, "시설명": "학평2리경로당", "시설유형": "특정계층이용시설-회원이용시설", "주소": "충청북도 청주시 청원구 내수읍 학평리 211-32", "시간": "13:00 ~ 17:00 (월-일)", "구분": "특정인 이용가능" }, "geometry": { "type": "Point", "coordinates": [ 127.544574139723295, 36.720767471918712 ] } },
{ "type": "Feature", "properties": { "fid": 2193, "시설명": "서당2경로당", "시설유형": "특정계층이용시설-회원이용시설", "주소": "충청북도 청주시 청원구 북이면 서당길 133-10", "시간": "기본 : 10:00 ~ 17:00 (월~일)", "구분": "특정인 이용가능" }, "geometry": { "type": "Point", "coordinates": [ 127.556225115732303, 36.724792459736662 ] } },
{ "type": "Feature", "properties": { "fid": 2258, "시설명": "상리경로당", "시설유형": "특정계층이용시설-회원이용시설", "주소": "충청북도 청주시 청원구 상리로8번길 7-3 (율량동)", "시간": "기본 : 13:00 ~ 17:00 (월,화,수,목,금,토,일)", "구분": "특정인 이용가능" }, "geometry": { "type": "Point", "coordinates": [ 127.512245485441269, 36.663625160899201 ] } },
{ "type": "Feature", "properties": { "fid": 2259, "시설명": "선광로즈웰1차아파트경로당", "시설유형": "특정계층이용시설-회원이용시설", "주소": "충청북도 청주시 청원구 율량로 157 (율량동, 선광로즈웰1차아파트)", "시간": "기본 : 13:00 ~ 17:00 (월,화,수,목,금,토,일)", "구분": "특정인 이용가능" }, "geometry": { "type": "Point", "coordinates": [ 127.500167366793477, 36.668436088007802 ] } },
{ "type": "Feature", "properties": { "fid": 2263, "시설명": "율량2LH9단지아파트경로당", "시설유형": "특정계층이용시설-회원이용시설", "주소": "충청북도 청주시 청원구 율량동 율중로7번길 77 , 관리사무소 (율량동)", "시간": "기본 : 13:00 ~ 17:00 (월,화,수,목,금,토,일)", "구분": "특정인 이용가능" }, "geometry": { "type": "Point", "coordinates": [ 127.511104439629619, 36.660613022423341 ] } },
{ "type": "Feature", "properties": { "fid": 2311, "시설명": "주성14통경로당", "시설유형": "특정계층이용시설-회원이용시설", "주소": "충청북도 청주시 청원구 충청대로272번길 95 , 주성14통경로당 (주성동)", "시간": "기본 : 13:00 ~ 17:00 (월,화,수,목,금,토,일)", "구분": "특정인 이용가능" }, "geometry": { "type": "Point", "coordinates": [ 127.502119163684227, 36.678652152368244 ] } },
{ "type": "Feature", "properties": { "fid": 2312, "시설명": "선광로즈웰2차아파트경로당", "시설유형": "특정계층이용시설-회원이용시설", "주소": "충청북도 청주시 청원구 주성동 율량로 119 , 상가 (주성동)", "시간": "기본 : 13:00 ~ 17:00 (월,화,수,목,금,토,일)", "구분": "특정인 이용가능" }, "geometry": { "type": "Point", "coordinates": [ 127.4998069335943, 36.672822498179976 ] } },
{ "type": "Feature", "properties": { "fid": 2313, "시설명": "대원칸타빌3차아파트경로당", "시설유형": "특정계층이용시설-회원이용시설", "주소": "충청북도 청주시 청원구 율량로 135", "시간": "기본 : 13:00 ~ 17:00 (월,화,수,목,금,토,일)", "구분": "특정인 이용가능" }, "geometry": { "type": "Point", "coordinates": [ 127.500647031367066, 36.670757071019302 ] } },
{ "type": "Feature", "properties": { "fid": 1826, "시설명": "청주상당노인복지관", "시설유형": "특정계층이용시설-회원이용시설", "주소": "충청북도 청주시 상당구 단재로 361 (방서동)", "시간": "09:00 ~ 18:00 (월~금)", "구분": "특정인 이용가능" }, "geometry": { "type": "Point", "coordinates": [ 127.506859742332225, 36.598701268986126 ] } },
{ "type": "Feature", "properties": { "fid": 1825, "시설명": "방서경로당", "시설유형": "특정계층이용시설-회원이용시설", "주소": "충청북도 청주시 상당구 단재로293번길 21 (방서동)", "시간": "13:00 ~ 17:00 (월~일)", "구분": "특정인 이용가능" }, "geometry": { "type": "Point", "coordinates": [ 127.50357480857808, 36.604000869615192 ] } },
{ "type": "Feature", "properties": { "fid": 1828, "시설명": "용암2동행정복지센터", "시설유형": "공공시설-공공청사", "주소": "충청북도 청주시 상당구 무농정로 47", "시간": "09:00 ~ 18:00 (평일) / 10:00 ~ 18:00 (주말)", "구분": "누구나 이용가능" }, "geometry": { "type": "Point", "coordinates": [ 127.508038872022027, 36.607167108676606 ] } },
{ "type": "Feature", "properties": { "fid": 1827, "시설명": "용암우체국", "시설유형": "공공시설-공공청사", "주소": "충청북도 청주시 상당구 무농정로 51", "시간": "09:00 ~ 16:00 (월~금)", "구분": "누구나 이용가능" }, "geometry": { "type": "Point", "coordinates": [ 127.508258512857992, 36.607296606189927 ] } },
{ "type": "Feature", "properties": { "fid": 1818, "시설명": "대머리경로당", "시설유형": "특정계층이용시설-회원이용시설", "주소": "충청북도 청주시 상당구 중흥로11번길 12-5 (용암동)", "시간": "13:00 ~ 17:00 (월~일)", "구분": "특정인 이용가능" }, "geometry": { "type": "Point", "coordinates": [ 127.501349382140262, 36.607586756724281 ] } },
{ "type": "Feature", "properties": { "fid": 1803, "시설명": "용암1동행정복지센터", "시설유형": "공공시설-공공청사", "주소": "충청북도 청주시 상당구 중흥로 29 (용암동)", "시간": "09:00 ~ 18:00 (평일) / 10:00 ~ 18:00 (주말)", "구분": "누구나 이용가능" }, "geometry": { "type": "Point", "coordinates": [ 127.501578719585467, 36.608674619467031 ] } },
{ "type": "Feature", "properties": { "fid": 1829, "시설명": "형석아파트경로당", "시설유형": "특정계층이용시설-회원이용시설", "주소": "충청북도 청주시 상당구 월평로 207", "시간": "13:00 ~ 17:00 (월~일)", "구분": "특정인 이용가능" }, "geometry": { "type": "Point", "coordinates": [ 127.507650503513361, 36.609228589617658 ] } },
{ "type": "Feature", "properties": { "fid": 1796, "시설명": "현대1차경로당", "시설유형": "특정계층이용시설-회원이용시설", "주소": "충청북도 청주시 상당구 월평로 189 (용암동)", "시간": "13:00 ~ 17:00 (월~일)", "구분": "특정인 이용가능" }, "geometry": { "type": "Point", "coordinates": [ 127.506032951290365, 36.610267777314604 ] } },
{ "type": "Feature", "properties": { "fid": 1815, "시설명": "현대3차경로당", "시설유형": "특정계층이용시설-회원이용시설", "주소": "충청북도 청주시 상당구 중흥로 70 (용암동)", "시간": "13:00 ~ 17:00 (월~일)", "구분": "특정인 이용가능" }, "geometry": { "type": "Point", "coordinates": [ 127.505026673746428, 36.611287330651365 ] } },
{ "type": "Feature", "properties": { "fid": 1811, "시설명": "대성베르힐2단지경로당", "시설유형": "특정계층이용시설-회원이용시설", "주소": "충청북도 청주시 상당구 호미로 2 (용암동)", "시간": "13:00 ~ 17:00 (월~일)", "구분": "특정인 이용가능" }, "geometry": { "type": "Point", "coordinates": [ 127.518016209180544, 36.612129408431002 ] } },
{ "type": "Feature", "properties": { "fid": 1806, "시설명": "건영경로당", "시설유형": "특정계층이용시설-회원이용시설", "주소": "충청북도 청주시 상당구 중흥로 71 (용암동)", "시간": "13:00 ~ 17:00 (월~일)", "구분": "특정인 이용가능" }, "geometry": { "type": "Point", "coordinates": [ 127.503463554566977, 36.612171022046489 ] } },
{ "type": "Feature", "properties": { "fid": 1816, "시설명": "임광경로당", "시설유형": "특정계층이용시설-회원이용시설", "주소": "충청북도 청주시 상당구 용암로 36 (용암동)", "시간": "13:00 ~ 17:00 (월~일)", "구분": "특정인 이용가능" }, "geometry": { "type": "Point", "coordinates": [ 127.508152194777708, 36.612334437096358 ] } },
{ "type": "Feature", "properties": { "fid": 1798, "시설명": "한우리경로당", "시설유형": "특정계층이용시설-회원이용시설", "주소": "충청북도 청주시 상당구 용암로 36 (용암동)", "시간": "13:00 ~ 17:00 (월~일)", "구분": "특정인 이용가능" }, "geometry": { "type": "Point", "coordinates": [ 127.508152194777708, 36.612334437096358 ] } },
{ "type": "Feature", "properties": { "fid": 1814, "시설명": "현대2차경로당", "시설유형": "특정계층이용시설-회원이용시설", "주소": "충청북도 청주시 상당구 원봉로 39 (용암동)", "시간": "13:00 ~ 17:00 (월~일)", "구분": "특정인 이용가능" }, "geometry": { "type": "Point", "coordinates": [ 127.509036770842883, 36.613197599785956 ] } },
{ "type": "Feature", "properties": { "fid": 1797, "시설명": "강변뜨란채경로당", "시설유형": "특정계층이용시설-회원이용시설", "주소": "충청북도 청주시 상당구 무심동로 86 (용암동)", "시간": "13:00 ~ 17:00 (월~일)", "구분": "특정인 이용가능" }, "geometry": { "type": "Point", "coordinates": [ 127.498162483802844, 36.613795960653832 ] } },
{ "type": "Feature", "properties": { "fid": 1823, "시설명": "주공1차경로당", "시설유형": "특정계층이용시설-회원이용시설", "주소": "충청북도 청주시 상당구 원봉로 52 (용암동)", "시간": "13:00 ~ 17:00 (월~일)", "구분": "특정인 이용가능" }, "geometry": { "type": "Point", "coordinates": [ 127.509976646832314, 36.614059079186752 ] } },
{ "type": "Feature", "properties": { "fid": 1820, "시설명": "주공2차경로당", "시설유형": "특정계층이용시설-회원이용시설", "주소": "충청북도 청주시 상당구 원봉로 52-1", "시간": "13:00 ~ 17:00 (월~일)", "구분": "특정인 이용가능" }, "geometry": { "type": "Point", "coordinates": [ 127.509976646832314, 36.614059079186752 ] } },
{ "type": "Feature", "properties": { "fid": 1830, "시설명": "효성아파트경로당", "시설유형": "특정계층이용시설-회원이용시설", "주소": "충청북도 청주시 상당구 월평로 221", "시간": "13:00 ~ 17:00 (월~일)", "구분": "특정인 이용가능" }, "geometry": { "type": "Point", "coordinates": [ 127.508856295512274, 36.608445340966284 ] } },
{ "type": "Feature", "properties": { "fid": 1831, "시설명": "농협충북유통", "시설유형": "생활밀착민간시설-유통·판매·서비스시설", "주소": "충청북도 청주시 상당구 무농정로 32", "시간": "10:00 ~ 22:00 (월~일)", "구분": "누구나 이용가능" }, "geometry": { "type": "Point", "coordinates": [ 127.50701057603203, 36.605099856851204 ] } },
{ "type": "Feature", "properties": { "fid": 1804, "시설명": "칸타빌더테라스2단지경로당", "시설유형": "특정계층이용시설-회원이용시설", "주소": "충청북도 청주시 상당구 중고개로 104 (용암동)", "시간": "13:00 ~ 17:00 (월~일)", "구분": "특정인 이용가능" }, "geometry": { "type": "Point", "coordinates": [ 127.521634668982145, 36.614423985862643 ] } },
{ "type": "Feature", "properties": { "fid": 1812, "시설명": "중흥점촌경로당", "시설유형": "특정계층이용시설-회원이용시설", "주소": "충청북도 청주시 상당구 용암로95번길 24 (용암동)", "시간": "13:00 ~ 17:00 (월~일)", "구분": "특정인 이용가능" }, "geometry": { "type": "Point", "coordinates": [ 127.503193724753231, 36.615454535656532 ] } },
{ "type": "Feature", "properties": { "fid": 1824, "시설명": "중흥부영5차경로당", "시설유형": "특정계층이용시설-회원이용시설", "주소": "충청북도 청주시 상당구 중흥로 142 (용암동)", "시간": "13:00 ~ 17:00 (월~일)", "구분": "특정인 이용가능" }, "geometry": { "type": "Point", "coordinates": [ 127.510457902400418, 36.615911140687388 ] } },
{ "type": "Feature", "properties": { "fid": 1813, "시설명": "동남LH3단지경로당", "시설유형": "특정계층이용시설-회원이용시설", "주소": "충청북도 청주시 상당구 호미로 60 (용암동)", "시간": "09:00 ~ 18:00 (월~일)", "구분": "특정인 이용가능" }, "geometry": { "type": "Point", "coordinates": [ 127.523255671456596, 36.616072159142838 ] } },
{ "type": "Feature", "properties": { "fid": 1810, "시설명": "덕일마이빌경로당", "시설유형": "특정계층이용시설-회원이용시설", "주소": "충청북도 청주시 상당구 중흥로 148 (용암동)", "시간": "13:00 ~ 17:00 (월~일)", "구분": "특정인 이용가능" }, "geometry": { "type": "Point", "coordinates": [ 127.511897610934767, 36.616619105490813 ] } },
{ "type": "Feature", "properties": { "fid": 1817, "시설명": "장수경로당", "시설유형": "특정계층이용시설-회원이용시설", "주소": "충청북도 청주시 상당구 낙영로 20 (용암동)", "시간": "13:00 ~ 17:00 (월~일)", "구분": "특정인 이용가능" }, "geometry": { "type": "Point", "coordinates": [ 127.508576480753888, 36.617364374377708 ] } },
{ "type": "Feature", "properties": { "fid": 1782, "시설명": "청운경로당", "시설유형": "특정계층이용시설-회원이용시설", "주소": "충청북도 청주시 상당구 영운천로51번길 6 (영운동)", "시간": "09:00 ~ 17:00 (월~금)", "구분": "특정인 이용가능" }, "geometry": { "type": "Point", "coordinates": [ 127.504589592370181, 36.617584696231816 ] } },
{ "type": "Feature", "properties": { "fid": 1805, "시설명": "우미린에듀포레경로당", "시설유형": "특정계층이용시설-회원이용시설", "주소": "충청북도 청주시 상당구 중고개로142번길 20 (용암동)", "시간": "13:00 ~ 17:00 (월~일)", "구분": "특정인 이용가능" }, "geometry": { "type": "Point", "coordinates": [ 127.520877453671986, 36.617852023723174 ] } },
{ "type": "Feature", "properties": { "fid": 1786, "시설명": "영운동행정복지센터", "시설유형": "공공시설-공공청사", "주소": "충청북도 청주시 상당구 단재로 129", "시간": "09:00 ~ 18:00 (월~금)", "구분": "누구나 이용가능" }, "geometry": { "type": "Point", "coordinates": [ 127.498876902082671, 36.617943969416878 ] } },
{ "type": "Feature", "properties": { "fid": 1802, "시설명": "부영3차경로당", "시설유형": "특정계층이용시설-회원이용시설", "주소": "충청북도 청주시 상당구 중흥로 178 (용암동)", "시간": "13:00 ~ 17:00 (월~일)", "구분": "특정인 이용가능" }, "geometry": { "type": "Point", "coordinates": [ 127.513506266215586, 36.61815200655041 ] } },
{ "type": "Feature", "properties": { "fid": 1784, "시설명": "영운경로당", "시설유형": "특정계층이용시설-회원이용시설", "주소": "충청북도 청주시 상당구 단재로127번길 6-9 (영운동)", "시간": "13:00 ~ 17:00 (월~금)", "구분": "특정인 이용가능" }, "geometry": { "type": "Point", "coordinates": [ 127.498908145149798, 36.61821389365911 ] } },
{ "type": "Feature", "properties": { "fid": 1807, "시설명": "중흥부영2차경로당", "시설유형": "특정계층이용시설-회원이용시설", "주소": "충청북도 청주시 상당구 중흥로 196 (용암동)", "시간": "13:00 ~ 17:00 (월~일)", "구분": "특정인 이용가능" }, "geometry": { "type": "Point", "coordinates": [ 127.514624412495465, 36.619097321560027 ] } },
{ "type": "Feature", "properties": { "fid": 1819, "시설명": "중흥마을(부영10차)경로당", "시설유형": "특정계층이용시설-회원이용시설", "주소": "충청북도 청주시 상당구 중흥로 173 (용암동)", "시간": "13:00 ~ 17:00 (월~일)", "구분": "특정인 이용가능" }, "geometry": { "type": "Point", "coordinates": [ 127.511207988677526, 36.619220194810687 ] } },
{ "type": "Feature", "properties": { "fid": 1785, "시설명": "영우리경로당", "시설유형": "특정계층이용시설-회원이용시설", "주소": "충청북도 청주시 상당구 수영로136번길 61 (영운동)", "시간": "09:00 ~ 17:00 (월~금)", "구분": "특정인 이용가능" }, "geometry": { "type": "Point", "coordinates": [ 127.502640295352663, 36.619314213648849 ] } },
{ "type": "Feature", "properties": { "fid": 1822, "시설명": "용박골경로당", "시설유형": "특정계층이용시설-회원이용시설", "주소": "충청북도 청주시 상당구 낙가산로 19-10 (용암동)", "시간": "13:00 ~ 17:00 (월~일)", "구분": "특정인 이용가능" }, "geometry": { "type": "Point", "coordinates": [ 127.524827017599492, 36.619674126088235 ] } },
{ "type": "Feature", "properties": { "fid": 1795, "시설명": "시티프라디움1단지경로당", "시설유형": "특정계층이용시설-회원이용시설", "주소": "충청북도 청주시 상당구 중고개로142번길 31 (용암동)", "시간": "13:00 ~ 17:00 (월~일)", "구분": "특정인 이용가능" }, "geometry": { "type": "Point", "coordinates": [ 127.520289595418717, 36.619912704509787 ] } },
{ "type": "Feature", "properties": { "fid": 1783, "시설명": "삼진(아)경로당", "시설유형": "특정계층이용시설-회원이용시설", "주소": "충청북도 청주시 상당구 영운천로69번길 57 (영운동)", "시간": "10:00 ~ 16:00 (월~금)", "구분": "특정인 이용가능" }, "geometry": { "type": "Point", "coordinates": [ 127.504930837925571, 36.620791402105738 ] } },
{ "type": "Feature", "properties": { "fid": 1779, "시설명": "영세경로당", "시설유형": "특정계층이용시설-회원이용시설", "주소": "충청북도 청주시 상당구 단재로95번길 43 (영운동)", "시간": "09:00 ~ 17:00 (월~금)", "구분": "특정인 이용가능" },